transit_timestamp,transit_mode,station_complex_id,station_complex,borough,payment_method,fare_class_category,ridership,transfers,latitude,longitude,georeference
2024-01-01T01:00:00.000,subway,34,53 St (R),Brooklyn,omny,OMNY - Full Fare,20.0,0.0,40.64507,-74.01403,"{'type': 'Point', 'coordinates': [-74.01403, 40.64507]}"
2024-01-01T01:00:00.000,subway,449,111 St (7),Queens,omny,OMNY - Full Fare,9.0,0.0,40.75173,-73.85533,"{'type': 'Point', 'coordinates': [-73.85533, 40.75173]}"
2024-01-01T01:00:00.000,subway,429,"Freeman St (2,5)",Bronx,metrocard,Metrocard - Full Fare,7.0,0.0,40.829994,-73.89187,"{'type': 'Point', 'coordinates': [-73.89187, 40.829994]}"
2024-01-01T01:00:00.000,subway,328,WTC Cortlandt (1),Manhattan,metrocard,Metrocard - Unlimited 7-Day,30.0,0.0,40.711834,-74.01219,"{'type': 'Point', 'coordinates': [-74.01219, 40.711834]}"
2024-01-01T01:00:00.000,subway,360,Pelham Bay Park (6),Bronx,metrocard,Metrocard - Unlimited 7-Day,3.0,0.0,40.852463,-73.82812,"{'type': 'Point', 'coordinates': [-73.82812, 40.852463]}"
2024-01-01T01:00:00.000,subway,270,"46 St (M,R)",Queens,metrocard,Metrocard - Unlimited 30-Day,1.0,0.0,40.756313,-73.91333,"{'type': 'Point', 'coordinates': [-73.91333, 40.756313]}"
2024-01-01T01:00:00.000,subway,55,"Brighton Beach (B,Q)",Brooklyn,metrocard,Metrocard - Fair Fare,6.0,0.0,40.57762,-73.96137,"{'type': 'Point', 'coordinates': [-73.96137, 40.57762]}"
2024-01-01T01:00:00.000,subway,52,Avenue U (Q),Brooklyn,metrocard,Metrocard - Unlimited 30-Day,2.0,0.0,40.5993,-73.95593,"{'type': 'Point', 'coordinates': [-73.95593, 40.5993]}"
2024-01-01T01:00:00.000,subway,123,Grand St (L),Brooklyn,omny,OMNY - Seniors & Disability,1.0,0.0,40.711926,-73.94067,"{'type': 'Point', 'coordinates': [-73.94067, 40.711926]}"
2024-01-01T01:00:00.000,subway,384,Burnside Av (4),Bronx,metrocard,Metrocard - Full Fare,3.0,0.0,40.853455,-73.907684,"{'type': 'Point', 'coordinates': [-73.907684, 40.853455]}"
2024-01-01T01:00:00.000,subway,119,1 Av (L),Manhattan,metrocard,Metrocard - Other,8.0,0.0,40.730953,-73.98163,"{'type': 'Point', 'coordinates': [-73.98163, 40.730953]}"
2024-01-01T01:00:00.000,subway,101,"Marcy Av (M,J,Z)",Brooklyn,metrocard,Metrocard - Seniors & Disability,2.0,1.0,40.70836,-73.957756,"{'type': 'Point', 'coordinates': [-73.957756, 40.70836]}"
2024-01-01T01:00:00.000,subway,630,"Myrtle-Wyckoff Avs (L,M)",Brooklyn,metrocard,Metrocard - Other,7.0,0.0,40.699814,-73.91158,"{'type': 'Point', 'coordinates': [-73.91158, 40.699814]}"
2024-01-01T01:00:00.000,subway,607,"34 St-Herald Sq (B,D,F,M,N,Q,R,W)",Manhattan,metrocard,Metrocard - Unlimited 30-Day,126.0,0.0,40.749718,-73.98782,"{'type': 'Point', 'coordinates': [-73.98782, 40.749718]}"
2024-01-01T01:00:00.000,subway,129,Halsey St (L),Queens,metrocard,Metrocard - Fair Fare,4.0,0.0,40.695602,-73.90408,"{'type': 'Point', 'coordinates': [-73.90408, 40.695602]}"
2024-01-01T01:00:00.000,subway,123,Grand St (L),Brooklyn,metrocard,Metrocard - Other,4.0,0.0,40.711926,-73.94067,"{'type': 'Point', 'coordinates': [-73.94067, 40.711926]}"
2024-01-01T01:00:00.000,subway,231,"Grand St (B,D)",Manhattan,metrocard,Metrocard - Fair Fare,6.0,0.0,40.718266,-73.99375,"{'type': 'Point', 'coordinates': [-73.99375, 40.718266]}"
2024-01-01T01:00:00.000,subway,625,"Delancey St (F)/Essex St (J,M,Z)",Manhattan,metrocard,Metrocard - Unlimited 30-Day,41.0,0.0,40.718613,-73.987434,"{'type': 'Point', 'coordinates': [-73.987434, 40.718613]}"
2024-01-01T01:00:00.000,subway,621,"Broadway Junction (A,C,J,L,Z)",Brooklyn,metrocard,Metrocard - Unlimited 7-Day,1.0,0.0,40.678333,-73.90532,"{'type': 'Point', 'coordinates': [-73.90532, 40.678333]}"
2024-01-01T01:00:00.000,tram,TRAM1,RI Tramway (Manhattan),Manhattan,metrocard,Metrocard - Full Fare,20.0,9.0,40.761337,-73.96416,"{'type': 'Point', 'coordinates': [-73.96416, 40.761337]}"
2024-01-01T01:00:00.000,subway,609,"Bryant Pk (B,D,F,M)/5 Av (7)",Manhattan,omny,OMNY - Full Fare,842.0,2.0,40.754223,-73.981964,"{'type': 'Point', 'coordinates': [-73.981964, 40.754223]}"
2024-01-01T01:00:00.000,subway,456,61 St-Woodside (7),Queens,metrocard,Metrocard - Unlimited 7-Day,13.0,0.0,40.74563,-73.902985,"{'type': 'Point', 'coordinates': [-73.902985, 40.74563]}"
2024-01-01T01:00:00.000,subway,276,"5 Av/53 St (E,M)",Manhattan,metrocard,Metrocard - Other,9.0,0.0,40.760166,-73.97523,"{'type': 'Point', 'coordinates': [-73.97523, 40.760166]}"
2024-01-01T01:00:00.000,tram,TRAM1,RI Tramway (Manhattan),Manhattan,metrocard,Metrocard - Unlimited 30-Day,22.0,0.0,40.761337,-73.96416,"{'type': 'Point', 'coordinates': [-73.96416, 40.761337]}"
2024-01-01T01:00:00.000,subway,329,Rector St (1),Manhattan,metrocard,Metrocard - Unlimited 30-Day,2.0,0.0,40.70751,-74.01379,"{'type': 'Point', 'coordinates': [-74.01379, 40.70751]}"
2024-01-01T01:00:00.000,subway,215,"Tremont Av (B,D)",Bronx,omny,OMNY - Full Fare,2.0,0.0,40.85041,-73.90523,"{'type': 'Point', 'coordinates': [-73.90523, 40.85041]}"
2024-01-01T01:00:00.000,subway,138,Canarsie-Rockaway Pkwy (L),Brooklyn,metrocard,Metrocard - Other,2.0,0.0,40.646652,-73.90185,"{'type': 'Point', 'coordinates': [-73.90185, 40.646652]}"
2024-01-01T01:00:00.000,subway,47,"Newkirk Plaza (B,Q)",Brooklyn,metrocard,Metrocard - Full Fare,5.0,0.0,40.635082,-73.96279,"{'type': 'Point', 'coordinates': [-73.96279, 40.635082]}"
2024-01-01T01:00:00.000,subway,361,Buhre Av (6),Bronx,omny,OMNY - Full Fare,9.0,0.0,40.84681,-73.832565,"{'type': 'Point', 'coordinates': [-73.832565, 40.84681]}"
2024-01-01T01:00:00.000,subway,3,"30 Av (N,W)",Queens,metrocard,Metrocard - Fair Fare,2.0,0.0,40.76678,-73.92148,"{'type': 'Point', 'coordinates': [-73.92148, 40.76678]}"
2024-01-01T01:00:00.000,subway,160,"72 St (C,B)",Manhattan,metrocard,Metrocard - Unlimited 7-Day,143.0,0.0,40.775593,-73.97641,"{'type': 'Point', 'coordinates': [-73.97641, 40.775593]}"
2024-01-01T01:00:00.000,subway,383,183 St (4),Bronx,metrocard,Metrocard - Full Fare,3.0,0.0,40.858406,-73.90388,"{'type': 'Point', 'coordinates': [-73.90388, 40.858406]}"
2024-01-01T01:00:00.000,subway,297,215 St (1),Manhattan,metrocard,Metrocard - Full Fare,2.0,0.0,40.869446,-73.915276,"{'type': 'Point', 'coordinates': [-73.915276, 40.869446]}"
2024-01-01T01:00:00.000,subway,30,Prospect Av (R),Brooklyn,metrocard,Metrocard - Unlimited 7-Day,1.0,0.0,40.665413,-73.992874,"{'type': 'Point', 'coordinates': [-73.992874, 40.665413]}"
2024-01-01T01:00:00.000,subway,1,"Astoria-Ditmars Blvd (N,W)",Queens,metrocard,Metrocard - Full Fare,15.0,0.0,40.775036,-73.91203,"{'type': 'Point', 'coordinates': [-73.91203, 40.775036]}"
2024-01-01T01:00:00.000,subway,441,"Central Park North (110 St) (2,3)",Manhattan,metrocard,Metrocard - Unlimited 30-Day,6.0,0.0,40.799076,-73.95182,"{'type': 'Point', 'coordinates': [-73.95182, 40.799076]}"
2024-01-01T01:00:00.000,subway,60,Fort Hamilton Pkwy (D),Brooklyn,metrocard,Metrocard - Full Fare,2.0,0.0,40.640915,-73.9943,"{'type': 'Point', 'coordinates': [-73.9943, 40.640915]}"
2024-01-01T01:00:00.000,subway,428,"174 St (2,5)",Bronx,metrocard,Metrocard - Unlimited 7-Day,4.0,0.0,40.837288,-73.88773,"{'type': 'Point', 'coordinates': [-73.88773, 40.837288]}"
2024-01-01T01:00:00.000,subway,42,"Prospect Park (B,Q,S)",Brooklyn,metrocard,Metrocard - Full Fare,12.0,0.0,40.661613,-73.96225,"{'type': 'Point', 'coordinates': [-73.96225, 40.661613]}"
2024-01-01T01:00:00.000,subway,6,"39 Av-Dutch Kills (N,W)",Queens,metrocard,Metrocard - Full Fare,2.0,0.0,40.75288,-73.932755,"{'type': 'Point', 'coordinates': [-73.932755, 40.75288]}"
2024-01-01T01:00:00.000,subway,91,Alabama Av (J),Brooklyn,omny,OMNY - Full Fare,5.0,2.0,40.67699,-73.89865,"{'type': 'Point', 'coordinates': [-73.89865, 40.67699]}"
2024-01-01T01:00:00.000,subway,295,231 St (1),Bronx,metrocard,Metrocard - Unlimited 30-Day,1.0,0.0,40.878857,-73.90483,"{'type': 'Point', 'coordinates': [-73.90483, 40.878857]}"
2024-01-01T01:00:00.000,subway,74,18 Av (N),Brooklyn,omny,OMNY - Full Fare,2.0,0.0,40.62067,-73.99042,"{'type': 'Point', 'coordinates': [-73.99042, 40.62067]}"
2024-01-01T01:00:00.000,subway,314,66 St-Lincoln Center (1),Manhattan,omny,OMNY - Seniors & Disability,1.0,0.0,40.77344,-73.98221,"{'type': 'Point', 'coordinates': [-73.98221, 40.77344]}"
2024-01-01T01:00:00.000,subway,3,"30 Av (N,W)",Queens,metrocard,Metrocard - Full Fare,16.0,0.0,40.76678,-73.92148,"{'type': 'Point', 'coordinates': [-73.92148, 40.76678]}"
2024-01-01T01:00:00.000,subway,130,Wilson Av (L),Brooklyn,omny,OMNY - Full Fare,71.0,0.0,40.688763,-73.904045,"{'type': 'Point', 'coordinates': [-73.904045, 40.688763]}"
2024-01-01T01:00:00.000,subway,269,"Northern Blvd (M,R)",Queens,metrocard,Metrocard - Other,1.0,0.0,40.752884,-73.906006,"{'type': 'Point', 'coordinates': [-73.906006, 40.752884]}"
2024-01-01T01:00:00.000,subway,416,Wakefield-241 St (2),Bronx,metrocard,Metrocard - Fair Fare,2.0,0.0,40.903126,-73.85062,"{'type': 'Point', 'coordinates': [-73.85062, 40.903126]}"
2024-01-01T01:00:00.000,subway,629,Lorimer St (L)/Metropolitan Av (G),Brooklyn,metrocard,Metrocard - Unlimited 7-Day,29.0,0.0,40.71406,-73.95027,"{'type': 'Point', 'coordinates': [-73.95027, 40.71406]}"
2024-01-01T01:00:00.000,subway,624,"Chambers St (A,C)/WTC (E)/Park Pl (2,3)/Cortlandt (R,W)",Manhattan,omny,OMNY - Other,7.0,0.0,40.710667,-74.01103,"{'type': 'Point', 'coordinates': [-74.01103, 40.710667]}"
2024-01-01T01:00:00.000,subway,313,"72 St (1,2,3)",Manhattan,metrocard,Metrocard - Unlimited 30-Day,53.0,0.0,40.778454,-73.98197,"{'type': 'Point', 'coordinates': [-73.98197, 40.778454]}"
2024-01-01T01:00:00.000,subway,282,21 St (G),Queens,metrocard,Metrocard - Unlimited 30-Day,2.0,0.0,40.744064,-73.94972,"{'type': 'Point', 'coordinates': [-73.94972, 40.744064]}"
2024-01-01T01:00:00.000,subway,476,86 St (Q),Manhattan,metrocard,Metrocard - Full Fare,16.0,0.0,40.77789,-73.95179,"{'type': 'Point', 'coordinates': [-73.95179, 40.77789]}"
2024-01-01T01:00:00.000,subway,237,"Carroll St (F,G)",Brooklyn,omny,OMNY - Full Fare,115.0,0.0,40.6803,-73.99505,"{'type': 'Point', 'coordinates': [-73.99505, 40.6803]}"
2024-01-01T01:00:00.000,subway,306,125 St (1),Manhattan,metrocard,Metrocard - Full Fare,7.0,0.0,40.815582,-73.958374,"{'type': 'Point', 'coordinates': [-73.958374, 40.815582]}"
2024-01-01T01:00:00.000,subway,349,Junius St (3),Brooklyn,metrocard,Metrocard - Unlimited 7-Day,2.0,0.0,40.663513,-73.90245,"{'type': 'Point', 'coordinates': [-73.90245, 40.663513]}"
2024-01-01T01:00:00.000,subway,327,"Chambers St (1,2,3)",Manhattan,metrocard,Metrocard - Unlimited 30-Day,10.0,0.0,40.715477,-74.00927,"{'type': 'Point', 'coordinates': [-74.00927, 40.715477]}"
2024-01-01T01:00:00.000,subway,35,"59 St (N,R)",Brooklyn,metrocard,Metrocard - Full Fare,12.0,0.0,40.64136,-74.01788,"{'type': 'Point', 'coordinates': [-74.01788, 40.64136]}"
2024-01-01T01:00:00.000,subway,89,Cleveland St (J),Brooklyn,metrocard,Metrocard - Unlimited 30-Day,1.0,0.0,40.679947,-73.884636,"{'type': 'Point', 'coordinates': [-73.884636, 40.679947]}"
2024-01-01T01:00:00.000,staten_island_railway,501,St George (SIR),Staten Island,metrocard,Metrocard - Fair Fare,1.0,0.0,40.64375,-74.07365,"{'type': 'Point', 'coordinates': [-74.07365, 40.64375]}"
2024-01-01T01:00:00.000,subway,151,"145 St (A,C,B,D)",Manhattan,metrocard,Metrocard - Fair Fare,5.0,0.0,40.824783,-73.944214,"{'type': 'Point', 'coordinates': [-73.944214, 40.824783]}"
2024-01-01T01:00:00.000,subway,186,Van Siclen Av (C),Brooklyn,omny,OMNY - Full Fare,2.0,0.0,40.67271,-73.89036,"{'type': 'Point', 'coordinates': [-73.89036, 40.67271]}"
2024-01-01T01:00:00.000,subway,273,"Queens Plaza (E,M,R)",Queens,metrocard,Metrocard - Full Fare,8.0,3.0,40.748974,-73.93724,"{'type': 'Point', 'coordinates': [-73.93724, 40.748974]}"
2024-01-01T01:00:00.000,subway,603,"149 St-Grand Concourse (2,4,5)",Bronx,metrocard,Metrocard - Other,1.0,0.0,40.818375,-73.92735,"{'type': 'Point', 'coordinates': [-73.92735, 40.818375]}"
2024-01-01T01:00:00.000,subway,369,Elder Av (6),Bronx,omny,OMNY - Full Fare,5.0,0.0,40.828583,-73.87916,"{'type': 'Point', 'coordinates': [-73.87916, 40.828583]}"
2024-01-01T01:00:00.000,subway,210,Norwood-205 St (D),Bronx,omny,OMNY - Full Fare,8.0,1.0,40.87481,-73.87885,"{'type': 'Point', 'coordinates': [-73.87885, 40.87481]}"
2024-01-01T01:00:00.000,subway,300,191 St (1),Manhattan,metrocard,Metrocard - Other,5.0,0.0,40.855225,-73.92941,"{'type': 'Point', 'coordinates': [-73.92941, 40.855225]}"
2024-01-01T01:00:00.000,subway,34,53 St (R),Brooklyn,metrocard,Metrocard - Seniors & Disability,1.0,0.0,40.64507,-74.01403,"{'type': 'Point', 'coordinates': [-74.01403, 40.64507]}"
2024-01-01T01:00:00.000,subway,422,"Burke Av (2,5)",Bronx,metrocard,Metrocard - Full Fare,4.0,0.0,40.871357,-73.867165,"{'type': 'Point', 'coordinates': [-73.867165, 40.871357]}"
2024-01-01T01:00:00.000,subway,162,"50 St (C,E)",Manhattan,metrocard,Metrocard - Seniors & Disability,11.0,0.0,40.762455,-73.985985,"{'type': 'Point', 'coordinates': [-73.985985, 40.762455]}"
2024-01-01T01:00:00.000,subway,181,"Utica Av (A,C)",Brooklyn,metrocard,Metrocard - Fair Fare,1.0,0.0,40.679363,-73.93073,"{'type': 'Point', 'coordinates': [-73.93073, 40.679363]}"
2024-01-01T01:00:00.000,subway,86,Cypress Hills (J),Brooklyn,metrocard,Metrocard - Full Fare,2.0,0.0,40.68994,-73.87255,"{'type': 'Point', 'coordinates': [-73.87255, 40.68994]}"
2024-01-01T01:00:00.000,subway,164,"34 St-Penn Station (A,C,E)",Manhattan,metrocard,Metrocard - Seniors & Disability,16.0,0.0,40.75229,-73.99339,"{'type': 'Point', 'coordinates': [-73.99339, 40.75229]}"
2024-01-01T01:00:00.000,subway,83,"Woodhaven Blvd (J,Z)",Queens,omny,OMNY - Full Fare,2.0,0.0,40.69388,-73.85158,"{'type': 'Point', 'coordinates': [-73.85158, 40.69388]}"
2024-01-01T01:00:00.000,subway,35,"59 St (N,R)",Brooklyn,metrocard,Metrocard - Unlimited 7-Day,3.0,0.0,40.64136,-74.01788,"{'type': 'Point', 'coordinates': [-74.01788, 40.64136]}"
2024-01-01T01:00:00.000,subway,387,170 St (4),Bronx,metrocard,Metrocard - Unlimited 7-Day,4.0,0.0,40.840076,-73.91779,"{'type': 'Point', 'coordinates': [-73.91779, 40.840076]}"
2024-01-01T01:00:00.000,subway,17,"Prince St (R,W)",Manhattan,omny,OMNY - Seniors & Disability,1.0,0.0,40.72433,-73.9977,"{'type': 'Point', 'coordinates': [-73.9977, 40.72433]}"
2024-01-01T01:00:00.000,subway,179,"Nostrand Av (A,C)",Brooklyn,metrocard,Metrocard - Other,6.0,0.0,40.68044,-73.950424,"{'type': 'Point', 'coordinates': [-73.950424, 40.68044]}"
2024-01-01T01:00:00.000,subway,356,"Church Av (2,5)",Brooklyn,metrocard,Metrocard - Unlimited 7-Day,4.0,0.0,40.650845,-73.94958,"{'type': 'Point', 'coordinates': [-73.94958, 40.650845]}"
2024-01-01T01:00:00.000,subway,254,Jamaica-179 St (F),Queens,metrocard,Metrocard - Seniors & Disability,2.0,0.0,40.712646,-73.78381,"{'type': 'Point', 'coordinates': [-73.78381, 40.712646]}"
2024-01-01T01:00:00.000,subway,404,28 St (6),Manhattan,metrocard,Metrocard - Seniors & Disability,3.0,0.0,40.74307,-73.98426,"{'type': 'Point', 'coordinates': [-73.98426, 40.74307]}"
2024-01-01T01:00:00.000,subway,39,Bay Ridge-95 St (R),Brooklyn,metrocard,Metrocard - Seniors & Disability,1.0,0.0,40.616623,-74.030876,"{'type': 'Point', 'coordinates': [-74.030876, 40.616623]}"
2024-01-01T01:00:00.000,subway,301,181 St (1),Manhattan,metrocard,Metrocard - Seniors & Disability,1.0,1.0,40.849506,-73.93359,"{'type': 'Point', 'coordinates': [-73.93359, 40.849506]}"
2024-01-01T01:00:00.000,subway,614,"59 St-Columbus Circle (A,B,C,D,1)",Manhattan,metrocard,Metrocard - Full Fare,241.0,0.0,40.768295,-73.981735,"{'type': 'Point', 'coordinates': [-73.981735, 40.768295]}"
2024-01-01T01:00:00.000,subway,262,"67 Av (M,R)",Queens,metrocard,Metrocard - Unlimited 7-Day,3.0,0.0,40.726524,-73.85272,"{'type': 'Point', 'coordinates': [-73.85272, 40.726524]}"
2024-01-01T01:00:00.000,subway,309,103 St (1),Manhattan,metrocard,Metrocard - Seniors & Disability,4.0,0.0,40.799446,-73.968376,"{'type': 'Point', 'coordinates': [-73.968376, 40.799446]}"
2024-01-01T01:00:00.000,subway,399,68 St-Hunter College (6),Manhattan,metrocard,Metrocard - Fair Fare,3.0,0.0,40.768143,-73.96387,"{'type': 'Point', 'coordinates': [-73.96387, 40.768143]}"
2024-01-01T01:00:00.000,subway,49,Avenue J (Q),Brooklyn,metrocard,Metrocard - Full Fare,2.0,0.0,40.62504,-73.9608,"{'type': 'Point', 'coordinates': [-73.9608, 40.62504]}"
2024-01-01T01:00:00.000,subway,392,"125 St (4,5,6)",Manhattan,metrocard,Metrocard - Other,9.0,0.0,40.80414,-73.93759,"{'type': 'Point', 'coordinates': [-73.93759, 40.80414]}"
2024-01-01T01:00:00.000,subway,130,Wilson Av (L),Brooklyn,metrocard,Metrocard - Seniors & Disability,3.0,0.0,40.688763,-73.904045,"{'type': 'Point', 'coordinates': [-73.904045, 40.688763]}"
2024-01-01T01:00:00.000,subway,180,Kingston-Throop Avs (C),Brooklyn,metrocard,Metrocard - Unlimited 30-Day,4.0,0.0,40.67992,-73.94086,"{'type': 'Point', 'coordinates': [-73.94086, 40.67992]}"
2024-01-01T01:00:00.000,subway,254,Jamaica-179 St (F),Queens,metrocard,Metrocard - Fair Fare,3.0,0.0,40.712646,-73.78381,"{'type': 'Point', 'coordinates': [-73.78381, 40.712646]}"
2024-01-01T01:00:00.000,subway,398,77 St (6),Manhattan,metrocard,Metrocard - Unlimited 7-Day,38.0,0.0,40.77362,-73.95988,"{'type': 'Point', 'coordinates': [-73.95988, 40.77362]}"
2024-01-01T01:00:00.000,subway,259,"Kew Gardens-Union Tpke (E,F)",Queens,metrocard,Metrocard - Full Fare,6.0,2.0,40.71444,-73.83101,"{'type': 'Point', 'coordinates': [-73.83101, 40.71444]}"
2024-01-01T01:00:00.000,subway,186,Van Siclen Av (C),Brooklyn,metrocard,Metrocard - Full Fare,1.0,0.0,40.67271,-73.89036,"{'type': 'Point', 'coordinates': [-73.89036, 40.67271]}"
2024-01-01T01:00:00.000,subway,109,Fresh Pond Rd (M),Queens,metrocard,Metrocard - Unlimited 30-Day,1.0,0.0,40.706184,-73.895874,"{'type': 'Point', 'coordinates': [-73.895874, 40.706184]}"
2024-01-01T01:00:00.000,subway,282,21 St (G),Queens,metrocard,Metrocard - Unlimited 7-Day,2.0,0.0,40.744064,-73.94972,"{'type': 'Point', 'coordinates': [-73.94972, 40.744064]}"
2024-01-01T01:00:00.000,subway,176,Lafayette Av (C),Brooklyn,omny,OMNY - Full Fare,126.0,0.0,40.68611,-73.973946,"{'type': 'Point', 'coordinates': [-73.973946, 40.68611]}"
2024-01-01T01:00:00.000,subway,601,"14 St (F,M,1,2,3)/6 Av (L)",Manhattan,omny,OMNY - Seniors & Disability,4.0,1.0,40.738228,-73.99621,"{'type': 'Point', 'coordinates': [-73.99621, 40.738228]}"
2024-01-01T01:00:00.000,subway,463,Hunters Point Av (7),Queens,omny,OMNY - Full Fare,6.0,0.0,40.742214,-73.94891,"{'type': 'Point', 'coordinates': [-73.94891, 40.742214]}"
2024-01-01T01:00:00.000,subway,383,183 St (4),Bronx,metrocard,Metrocard - Unlimited 7-Day,1.0,0.0,40.858406,-73.90388,"{'type': 'Point', 'coordinates': [-73.90388, 40.858406]}"
2024-01-01T01:00:00.000,subway,42,"Prospect Park (B,Q,S)",Brooklyn,metrocard,Metrocard - Fair Fare,2.0,0.0,40.661613,-73.96225,"{'type': 'Point', 'coordinates': [-73.96225, 40.661613]}"
2024-01-01T01:00:00.000,subway,610,"Grand Central-42 St (S,4,5,6,7)",Manhattan,metrocard,Metrocard - Full Fare,216.0,1.0,40.751778,-73.976845,"{'type': 'Point', 'coordinates': [-73.976845, 40.751778]}"
2024-01-01T01:00:00.000,subway,10,"49 St (N,R,W)",Manhattan,omny,OMNY - Full Fare,180.0,0.0,40.7599,-73.98414,"{'type': 'Point', 'coordinates': [-73.98414, 40.7599]}"
2024-01-01T01:00:00.000,subway,34,53 St (R),Brooklyn,metrocard,Metrocard - Full Fare,9.0,0.0,40.64507,-74.01403,"{'type': 'Point', 'coordinates': [-74.01403, 40.64507]}"
2024-01-01T01:00:00.000,subway,284,Nassau Av (G),Brooklyn,metrocard,Metrocard - Other,5.0,0.0,40.724636,-73.95128,"{'type': 'Point', 'coordinates': [-73.95128, 40.724636]}"
2024-01-01T01:00:00.000,subway,456,61 St-Woodside (7),Queens,metrocard,Metrocard - Full Fare,23.0,1.0,40.74563,-73.902985,"{'type': 'Point', 'coordinates': [-73.902985, 40.74563]}"
2024-01-01T01:00:00.000,subway,10,"49 St (N,R,W)",Manhattan,metrocard,Metrocard - Unlimited 7-Day,46.0,0.0,40.7599,-73.98414,"{'type': 'Point', 'coordinates': [-73.98414, 40.7599]}"
2024-01-01T01:00:00.000,subway,368,Morrison Av-Soundview (6),Bronx,metrocard,Metrocard - Unlimited 7-Day,1.0,0.0,40.82952,-73.87452,"{'type': 'Point', 'coordinates': [-73.87452, 40.82952]}"
2024-01-01T01:00:00.000,subway,397,"86 St (4,5,6)",Manhattan,metrocard,Metrocard - Unlimited 30-Day,7.0,0.0,40.77949,-73.95559,"{'type': 'Point', 'coordinates': [-73.95559, 40.77949]}"
2024-01-01T01:00:00.000,subway,99,"Lorimer St (M,J)",Brooklyn,metrocard,Metrocard - Fair Fare,3.0,0.0,40.70387,-73.94741,"{'type': 'Point', 'coordinates': [-73.94741, 40.70387]}"
2024-01-01T01:00:00.000,subway,265,"Grand Av-Newtown (M,R)",Queens,metrocard,Metrocard - Unlimited 30-Day,3.0,0.0,40.737015,-73.87722,"{'type': 'Point', 'coordinates': [-73.87722, 40.737015]}"
2024-01-01T01:00:00.000,subway,403,33 St (6),Manhattan,metrocard,Metrocard - Seniors & Disability,2.0,0.0,40.746082,-73.98208,"{'type': 'Point', 'coordinates': [-73.98208, 40.746082]}"
2024-01-01T01:00:00.000,subway,629,Lorimer St (L)/Metropolitan Av (G),Brooklyn,metrocard,Metrocard - Seniors & Disability,1.0,0.0,40.71279,-73.951416,"{'type': 'Point', 'coordinates': [-73.951416, 40.71279]}"
2024-01-01T01:00:00.000,subway,211,"Bedford Park Blvd (B,D)",Bronx,omny,OMNY - Full Fare,17.0,0.0,40.873245,-73.88714,"{'type': 'Point', 'coordinates': [-73.88714, 40.873245]}"
2024-01-01T01:00:00.000,subway,124,Montrose Av (L),Brooklyn,metrocard,Metrocard - Other,7.0,0.0,40.70774,-73.93985,"{'type': 'Point', 'coordinates': [-73.93985, 40.70774]}"
2024-01-01T01:00:00.000,subway,37,77 St (R),Brooklyn,metrocard,Metrocard - Full Fare,5.0,0.0,40.62974,-74.02551,"{'type': 'Point', 'coordinates': [-74.02551, 40.62974]}"
2024-01-01T01:00:00.000,subway,168,"Spring St (C,E)",Manhattan,metrocard,Metrocard - Full Fare,18.0,0.0,40.726227,-74.00374,"{'type': 'Point', 'coordinates': [-74.00374, 40.726227]}"
2024-01-01T01:00:00.000,subway,81,111 St (J),Queens,omny,OMNY - Full Fare,2.0,0.0,40.69742,-73.83634,"{'type': 'Point', 'coordinates': [-73.83634, 40.69742]}"
2024-01-01T01:00:00.000,subway,146,181 St (A),Manhattan,omny,OMNY - Full Fare,26.0,0.0,40.851696,-73.937965,"{'type': 'Point', 'coordinates': [-73.937965, 40.851696]}"
2024-01-01T01:00:00.000,subway,234,East Broadway (F),Manhattan,omny,OMNY - Full Fare,434.0,0.0,40.713715,-73.99017,"{'type': 'Point', 'coordinates': [-73.99017, 40.713715]}"
2024-01-01T01:00:00.000,subway,107,"Broad St (J,Z)",Manhattan,omny,OMNY - Full Fare,41.0,0.0,40.706474,-74.011055,"{'type': 'Point', 'coordinates': [-74.011055, 40.706474]}"
2024-01-01T01:00:00.000,subway,636,"Jay St-MetroTech (A,C,F,R)",Brooklyn,metrocard,Metrocard - Unlimited 7-Day,27.0,0.0,40.692337,-73.98594,"{'type': 'Point', 'coordinates': [-73.98594, 40.692337]}"
2024-01-01T01:00:00.000,subway,53,Neck Rd (Q),Brooklyn,metrocard,Metrocard - Unlimited 7-Day,2.0,0.0,40.595245,-73.95516,"{'type': 'Point', 'coordinates': [-73.95516, 40.595245]}"
2024-01-01T01:00:00.000,subway,443,Baychester Av (5),Bronx,metrocard,Metrocard - Full Fare,1.0,0.0,40.878662,-73.83859,"{'type': 'Point', 'coordinates': [-73.83859, 40.878662]}"
2024-01-01T01:00:00.000,subway,635,"South Ferry (1)/Whitehall St (R,W)",Manhattan,metrocard,Metrocard - Fair Fare,6.0,0.0,40.703087,-74.01299,"{'type': 'Point', 'coordinates': [-74.01299, 40.703087]}"
2024-01-01T01:00:00.000,subway,319,28 St (1),Manhattan,metrocard,Metrocard - Full Fare,33.0,0.0,40.747215,-73.99336,"{'type': 'Point', 'coordinates': [-73.99336, 40.747215]}"
2024-01-01T01:00:00.000,subway,611,"Times Sq-42 St (N,Q,R,W,S,1,2,3,7)/42 St (A,C,E)",Manhattan,metrocard,Metrocard - Seniors & Disability,39.0,0.0,40.75731,-73.986755,"{'type': 'Point', 'coordinates': [-73.986755, 40.75731]}"
2024-01-01T01:00:00.000,subway,50,Avenue M (Q),Brooklyn,metrocard,Metrocard - Full Fare,3.0,0.0,40.61762,-73.9594,"{'type': 'Point', 'coordinates': [-73.9594, 40.61762]}"
2024-01-01T01:00:00.000,subway,98,"Flushing Av (M,J)",Brooklyn,omny,OMNY - Full Fare,31.0,1.0,40.70026,-73.941124,"{'type': 'Point', 'coordinates': [-73.941124, 40.70026]}"
2024-01-01T01:00:00.000,subway,438,"135 St (2,3)",Manhattan,metrocard,Metrocard - Other,6.0,0.0,40.814228,-73.94077,"{'type': 'Point', 'coordinates': [-73.94077, 40.814228]}"
2024-01-01T01:00:00.000,subway,162,"50 St (C,E)",Manhattan,metrocard,Metrocard - Unlimited 30-Day,44.0,0.0,40.762455,-73.985985,"{'type': 'Point', 'coordinates': [-73.985985, 40.762455]}"
2024-01-01T01:00:00.000,subway,405,23 St (6),Manhattan,metrocard,Metrocard - Full Fare,54.0,0.0,40.739864,-73.9866,"{'type': 'Point', 'coordinates': [-73.9866, 40.739864]}"
2024-01-01T01:00:00.000,subway,294,238 St (1),Bronx,omny,OMNY - Full Fare,19.0,0.0,40.884666,-73.90087,"{'type': 'Point', 'coordinates': [-73.90087, 40.884666]}"
2024-01-01T01:00:00.000,subway,359,"Flatbush Av-Brooklyn College (2,5)",Brooklyn,metrocard,Metrocard - Fair Fare,4.0,0.0,40.632835,-73.94764,"{'type': 'Point', 'coordinates': [-73.94764, 40.632835]}"
2024-01-01T01:00:00.000,subway,377,3 Av-138 St (6),Bronx,metrocard,Metrocard - Other,3.0,0.0,40.810474,-73.92614,"{'type': 'Point', 'coordinates': [-73.92614, 40.810474]}"
2024-01-01T01:00:00.000,subway,127,DeKalb Av (L),Brooklyn,metrocard,Metrocard - Unlimited 30-Day,9.0,0.0,40.70381,-73.91843,"{'type': 'Point', 'coordinates': [-73.91843, 40.70381]}"
2024-01-01T01:00:00.000,subway,293,Van Cortlandt Park-242 St (1),Bronx,metrocard,Metrocard - Unlimited 30-Day,1.0,0.0,40.889248,-73.89858,"{'type': 'Point', 'coordinates': [-73.89858, 40.889248]}"
2024-01-01T01:00:00.000,subway,22,"Rector St (R,W)",Manhattan,metrocard,Metrocard - Full Fare,1.0,0.0,40.70722,-74.01334,"{'type': 'Point', 'coordinates': [-74.01334, 40.70722]}"
2024-01-01T01:00:00.000,subway,87,"Crescent St (J,Z)",Brooklyn,metrocard,Metrocard - Unlimited 7-Day,2.0,0.0,40.683193,-73.87379,"{'type': 'Point', 'coordinates': [-73.87379, 40.683193]}"
2024-01-01T01:00:00.000,subway,147,175 St (A),Manhattan,metrocard,Metrocard - Fair Fare,1.0,0.0,40.84739,-73.939705,"{'type': 'Point', 'coordinates': [-73.939705, 40.84739]}"
2024-01-01T01:00:00.000,subway,97,"Myrtle Av (M,J,Z)",Brooklyn,metrocard,Metrocard - Full Fare,7.0,0.0,40.69721,-73.93565,"{'type': 'Point', 'coordinates': [-73.93565, 40.69721]}"
2024-01-01T01:00:00.000,subway,101,"Marcy Av (M,J,Z)",Brooklyn,metrocard,Metrocard - Other,4.0,0.0,40.70836,-73.957756,"{'type': 'Point', 'coordinates': [-73.957756, 40.70836]}"
2024-01-01T01:00:00.000,subway,344,Kingston Av (3),Brooklyn,omny,OMNY - Full Fare,26.0,1.0,40.6694,-73.94216,"{'type': 'Point', 'coordinates': [-73.94216, 40.6694]}"
2024-01-01T01:00:00.000,subway,151,"145 St (A,C,B,D)",Manhattan,metrocard,Metrocard - Seniors & Disability,5.0,0.0,40.824783,-73.944214,"{'type': 'Point', 'coordinates': [-73.944214, 40.824783]}"
2024-01-01T01:00:00.000,subway,607,"34 St-Herald Sq (B,D,F,M,N,Q,R,W)",Manhattan,omny,OMNY - Seniors & Disability,4.0,0.0,40.749718,-73.98782,"{'type': 'Point', 'coordinates': [-73.98782, 40.749718]}"
2024-01-01T01:00:00.000,subway,451,Junction Blvd (7),Queens,metrocard,Metrocard - Other,3.0,0.0,40.749146,-73.86953,"{'type': 'Point', 'coordinates': [-73.86953, 40.749146]}"
2024-01-01T01:00:00.000,subway,271,"Steinway St (M,R)",Queens,metrocard,Metrocard - Unlimited 30-Day,9.0,0.0,40.756878,-73.92074,"{'type': 'Point', 'coordinates': [-73.92074, 40.756878]}"
2024-01-01T01:00:00.000,subway,258,"Briarwood (E,F)",Queens,omny,OMNY - Full Fare,6.0,0.0,40.70918,-73.82057,"{'type': 'Point', 'coordinates': [-73.82057, 40.70918]}"
2024-01-01T01:00:00.000,subway,305,137 St-City College (1),Manhattan,omny,OMNY - Full Fare,63.0,0.0,40.822006,-73.953674,"{'type': 'Point', 'coordinates': [-73.953674, 40.822006]}"
2024-01-01T01:00:00.000,subway,378,Woodlawn (4),Bronx,metrocard,Metrocard - Unlimited 30-Day,1.0,0.0,40.886036,-73.87875,"{'type': 'Point', 'coordinates': [-73.87875, 40.886036]}"
2024-01-01T01:00:00.000,subway,291,Clinton-Washington Avs (G),Brooklyn,omny,OMNY - Full Fare,89.0,0.0,40.688087,-73.96684,"{'type': 'Point', 'coordinates': [-73.96684, 40.688087]}"
2024-01-01T01:00:00.000,subway,50,Avenue M (Q),Brooklyn,metrocard,Metrocard - Other,1.0,0.0,40.61762,-73.9594,"{'type': 'Point', 'coordinates': [-73.9594, 40.61762]}"
2024-01-01T01:00:00.000,subway,71,8 Av (N),Brooklyn,metrocard,Metrocard - Unlimited 7-Day,2.0,0.0,40.635063,-74.01172,"{'type': 'Point', 'coordinates': [-74.01172, 40.635063]}"
2024-01-01T01:00:00.000,subway,81,111 St (J),Queens,metrocard,Metrocard - Full Fare,4.0,0.0,40.69742,-73.83634,"{'type': 'Point', 'coordinates': [-73.83634, 40.69742]}"
2024-01-01T01:00:00.000,subway,86,Cypress Hills (J),Brooklyn,metrocard,Metrocard - Seniors & Disability,1.0,0.0,40.68994,-73.87255,"{'type': 'Point', 'coordinates': [-73.87255, 40.68994]}"
2024-01-01T01:00:00.000,subway,477,72 St (Q),Manhattan,metrocard,Metrocard - Other,4.0,0.0,40.7688,-73.95843,"{'type': 'Point', 'coordinates': [-73.95843, 40.7688]}"
2024-01-01T01:00:00.000,subway,58,"Coney Island-Stillwell Av (D,F,N,Q)",Brooklyn,metrocard,Metrocard - Full Fare,16.0,1.0,40.577423,-73.98123,"{'type': 'Point', 'coordinates': [-73.98123, 40.577423]}"
2024-01-01T01:00:00.000,subway,96,Kosciuszko St (J),Brooklyn,metrocard,Metrocard - Unlimited 30-Day,2.0,0.0,40.69334,-73.92882,"{'type': 'Point', 'coordinates': [-73.92882, 40.69334]}"
2024-01-01T01:00:00.000,subway,237,"Carroll St (F,G)",Brooklyn,metrocard,Metrocard - Full Fare,10.0,0.0,40.6803,-73.99505,"{'type': 'Point', 'coordinates': [-73.99505, 40.6803]}"
2024-01-01T01:00:00.000,subway,325,Canal St (1),Manhattan,metrocard,Metrocard - Unlimited 7-Day,14.0,0.0,40.722855,-74.00628,"{'type': 'Point', 'coordinates': [-74.00628, 40.722855]}"
2024-01-01T01:00:00.000,subway,636,"Jay St-MetroTech (A,C,F,R)",Brooklyn,metrocard,Metrocard - Fair Fare,9.0,2.0,40.692337,-73.98594,"{'type': 'Point', 'coordinates': [-73.98594, 40.692337]}"
2024-01-01T01:00:00.000,subway,168,"Spring St (C,E)",Manhattan,metrocard,Metrocard - Unlimited 30-Day,10.0,0.0,40.726227,-74.00374,"{'type': 'Point', 'coordinates': [-74.00374, 40.726227]}"
2024-01-01T01:00:00.000,subway,610,"Grand Central-42 St (S,4,5,6,7)",Manhattan,metrocard,Metrocard - Seniors & Disability,22.0,0.0,40.751778,-73.976845,"{'type': 'Point', 'coordinates': [-73.976845, 40.751778]}"
2024-01-01T01:00:00.000,subway,179,"Nostrand Av (A,C)",Brooklyn,omny,OMNY - Full Fare,120.0,0.0,40.68044,-73.950424,"{'type': 'Point', 'coordinates': [-73.950424, 40.68044]}"
2024-01-01T01:00:00.000,subway,64,71 St (D),Brooklyn,omny,OMNY - Full Fare,9.0,0.0,40.61959,-73.99886,"{'type': 'Point', 'coordinates': [-73.99886, 40.61959]}"
2024-01-01T01:00:00.000,subway,296,Marble Hill-225 St (1),Manhattan,omny,OMNY - Full Fare,12.0,0.0,40.87456,-73.90983,"{'type': 'Point', 'coordinates': [-73.90983, 40.87456]}"
2024-01-01T01:00:00.000,subway,235,York St (F),Brooklyn,metrocard,Metrocard - Seniors & Disability,2.0,0.0,40.701397,-73.98675,"{'type': 'Point', 'coordinates': [-73.98675, 40.701397]}"
2024-01-01T01:00:00.000,subway,38,86 St (R),Brooklyn,metrocard,Metrocard - Seniors & Disability,3.0,0.0,40.62269,-74.0284,"{'type': 'Point', 'coordinates': [-74.0284, 40.62269]}"
2024-01-01T01:00:00.000,subway,289,Bedford-Nostrand Avs (G),Brooklyn,metrocard,Metrocard - Full Fare,14.0,0.0,40.68963,-73.95352,"{'type': 'Point', 'coordinates': [-73.95352, 40.68963]}"
2024-01-01T01:00:00.000,subway,240,"7 Av (F,G)",Brooklyn,metrocard,Metrocard - Other,4.0,0.0,40.66627,-73.98031,"{'type': 'Point', 'coordinates': [-73.98031, 40.66627]}"
2024-01-01T01:00:00.000,subway,192,Rockaway Blvd (A),Queens,metrocard,Metrocard - Full Fare,5.0,0.0,40.680428,-73.84386,"{'type': 'Point', 'coordinates': [-73.84386, 40.680428]}"
2024-01-01T01:00:00.000,subway,350,Pennsylvania Av (3),Brooklyn,omny,OMNY - Full Fare,2.0,0.0,40.664635,-73.8949,"{'type': 'Point', 'coordinates': [-73.8949, 40.664635]}"
2024-01-01T01:00:00.000,subway,55,"Brighton Beach (B,Q)",Brooklyn,omny,OMNY - Seniors & Disability,1.0,0.0,40.57762,-73.96137,"{'type': 'Point', 'coordinates': [-73.96137, 40.57762]}"
2024-01-01T01:00:00.000,subway,352,New Lots Av (3),Brooklyn,metrocard,Metrocard - Unlimited 30-Day,4.0,0.0,40.666237,-73.88408,"{'type': 'Point', 'coordinates': [-73.88408, 40.666237]}"
2024-01-01T01:00:00.000,subway,97,"Myrtle Av (M,J,Z)",Brooklyn,omny,OMNY - Full Fare,149.0,0.0,40.69721,-73.93565,"{'type': 'Point', 'coordinates': [-73.93565, 40.69721]}"
2024-01-01T01:00:00.000,subway,376,Brook Av (6),Bronx,metrocard,Metrocard - Other,3.0,0.0,40.807568,-73.91924,"{'type': 'Point', 'coordinates': [-73.91924, 40.807568]}"
2024-01-01T01:00:00.000,subway,316,50 St (1),Manhattan,omny,OMNY - Full Fare,470.0,0.0,40.761726,-73.98385,"{'type': 'Point', 'coordinates': [-73.98385, 40.761726]}"
2024-01-01T01:00:00.000,subway,421,"Gun Hill Rd (2,5)",Bronx,metrocard,Metrocard - Fair Fare,2.0,0.0,40.87785,-73.86626,"{'type': 'Point', 'coordinates': [-73.86626, 40.87785]}"
2024-01-01T01:00:00.000,subway,293,Van Cortlandt Park-242 St (1),Bronx,metrocard,Metrocard - Full Fare,1.0,0.0,40.889248,-73.89858,"{'type': 'Point', 'coordinates': [-73.89858, 40.889248]}"
2024-01-01T01:00:00.000,subway,409,Spring St (6),Manhattan,metrocard,Metrocard - Unlimited 7-Day,19.0,0.0,40.7223,-73.99714,"{'type': 'Point', 'coordinates': [-73.99714, 40.7223]}"
2024-01-01T01:00:00.000,subway,295,231 St (1),Bronx,metrocard,Metrocard - Seniors & Disability,3.0,1.0,40.878857,-73.90483,"{'type': 'Point', 'coordinates': [-73.90483, 40.878857]}"
2024-01-01T01:00:00.000,subway,175,"Hoyt-Schermerhorn Sts (A,C,G)",Brooklyn,metrocard,Metrocard - Unlimited 30-Day,8.0,0.0,40.688484,-73.985,"{'type': 'Point', 'coordinates': [-73.985, 40.688484]}"
2024-01-01T01:00:00.000,subway,218,"167 St (B,D)",Bronx,metrocard,Metrocard - Unlimited 30-Day,2.0,0.0,40.83377,-73.91844,"{'type': 'Point', 'coordinates': [-73.91844, 40.83377]}"
2024-01-01T01:00:00.000,subway,314,66 St-Lincoln Center (1),Manhattan,metrocard,Metrocard - Unlimited 7-Day,21.0,0.0,40.77344,-73.98221,"{'type': 'Point', 'coordinates': [-73.98221, 40.77344]}"
2024-01-01T01:00:00.000,subway,287,Flushing Av (G),Brooklyn,metrocard,Metrocard - Unlimited 7-Day,1.0,0.0,40.70038,-73.95023,"{'type': 'Point', 'coordinates': [-73.95023, 40.70038]}"
2024-01-01T01:00:00.000,subway,209,Far Rockaway-Mott Av (A),Queens,metrocard,Metrocard - Fair Fare,2.0,0.0,40.603996,-73.7554,"{'type': 'Point', 'coordinates': [-73.7554, 40.603996]}"
2024-01-01T01:00:00.000,subway,260,"75 Av (E,F)",Queens,metrocard,Metrocard - Unlimited 30-Day,2.0,0.0,40.71833,-73.837326,"{'type': 'Point', 'coordinates': [-73.837326, 40.71833]}"
2024-01-01T01:00:00.000,subway,82,"104 St (J,Z)",Queens,metrocard,Metrocard - Full Fare,6.0,0.0,40.69518,-73.84433,"{'type': 'Point', 'coordinates': [-73.84433, 40.69518]}"
2024-01-01T01:00:00.000,subway,300,191 St (1),Manhattan,metrocard,Metrocard - Unlimited 7-Day,1.0,0.0,40.855225,-73.92941,"{'type': 'Point', 'coordinates': [-73.92941, 40.855225]}"
2024-01-01T01:00:00.000,subway,310,"96 St (1,2,3)",Manhattan,metrocard,Metrocard - Unlimited 30-Day,11.0,0.0,40.79392,-73.97232,"{'type': 'Point', 'coordinates': [-73.97232, 40.79392]}"
2024-01-01T01:00:00.000,subway,606,"Court Sq (E,G,M,7)",Queens,metrocard,Metrocard - Unlimited 30-Day,14.0,0.0,40.747845,-73.94383,"{'type': 'Point', 'coordinates': [-73.94383, 40.747845]}"
2024-01-01T01:00:00.000,subway,373,E 149 St (6),Bronx,metrocard,Metrocard - Seniors & Disability,2.0,0.0,40.81212,-73.9041,"{'type': 'Point', 'coordinates': [-73.9041, 40.81212]}"
2024-01-01T01:00:00.000,subway,613,"Lexington Av (N,R,W)/59 St (4,5,6)",Manhattan,metrocard,Metrocard - Other,10.0,0.0,40.76266,-73.967255,"{'type': 'Point', 'coordinates': [-73.967255, 40.76266]}"
2024-01-01T01:00:00.000,subway,608,"4 Av (F,G)/9 St (R)",Brooklyn,metrocard,Metrocard - Full Fare,28.0,0.0,40.67085,-73.988304,"{'type': 'Point', 'coordinates': [-73.988304, 40.67085]}"
2024-01-01T01:00:00.000,subway,120,Bedford Av (L),Brooklyn,metrocard,Metrocard - Unlimited 7-Day,74.0,0.0,40.717304,-73.95687,"{'type': 'Point', 'coordinates': [-73.95687, 40.717304]}"
2024-01-01T01:00:00.000,subway,143,Inwood-207 St (A),Manhattan,metrocard,Metrocard - Unlimited 30-Day,2.0,0.0,40.868073,-73.9199,"{'type': 'Point', 'coordinates': [-73.9199, 40.868073]}"
2024-01-01T01:00:00.000,subway,381,Kingsbridge Rd (4),Bronx,metrocard,Metrocard - Full Fare,3.0,0.0,40.86776,-73.89717,"{'type': 'Point', 'coordinates': [-73.89717, 40.86776]}"
2024-01-01T01:00:00.000,subway,277,"7 Av (E,B,D)",Manhattan,metrocard,Metrocard - Unlimited 30-Day,22.0,0.0,40.762863,-73.981636,"{'type': 'Point', 'coordinates': [-73.981636, 40.762863]}"
2024-01-01T01:00:00.000,subway,326,Franklin St (1),Manhattan,metrocard,Metrocard - Unlimited 7-Day,12.0,0.0,40.71932,-74.00689,"{'type': 'Point', 'coordinates': [-74.00689, 40.71932]}"
2024-01-01T01:00:00.000,subway,476,86 St (Q),Manhattan,metrocard,Metrocard - Unlimited 30-Day,7.0,0.0,40.77789,-73.95179,"{'type': 'Point', 'coordinates': [-73.95179, 40.77789]}"
2024-01-01T01:00:00.000,subway,346,Sutter Av-Rutland Rd (3),Brooklyn,metrocard,Metrocard - Other,2.0,0.0,40.66472,-73.92261,"{'type': 'Point', 'coordinates': [-73.92261, 40.66472]}"
2024-01-01T01:00:00.000,subway,168,"Spring St (C,E)",Manhattan,omny,OMNY - Full Fare,159.0,0.0,40.726227,-74.00374,"{'type': 'Point', 'coordinates': [-74.00374, 40.726227]}"
2024-01-01T01:00:00.000,subway,399,68 St-Hunter College (6),Manhattan,metrocard,Metrocard - Unlimited 30-Day,21.0,0.0,40.768143,-73.96387,"{'type': 'Point', 'coordinates': [-73.96387, 40.768143]}"
2024-01-01T01:00:00.000,subway,144,Dyckman St (A),Manhattan,metrocard,Metrocard - Unlimited 7-Day,7.0,0.0,40.86549,-73.92727,"{'type': 'Point', 'coordinates': [-73.92727, 40.86549]}"
2024-01-01T01:00:00.000,subway,134,Sutter Av (L),Brooklyn,metrocard,Metrocard - Unlimited 30-Day,1.0,0.0,40.66937,-73.90198,"{'type': 'Point', 'coordinates': [-73.90198, 40.66937]}"
2024-01-01T01:00:00.000,subway,460,33 St-Rawson St (7),Queens,metrocard,Metrocard - Full Fare,3.0,0.0,40.744587,-73.931,"{'type': 'Point', 'coordinates': [-73.931, 40.744587]}"
2024-01-01T01:00:00.000,subway,420,"219 St (2,5)",Bronx,metrocard,Metrocard - Full Fare,2.0,0.0,40.883896,-73.86263,"{'type': 'Point', 'coordinates': [-73.86263, 40.883896]}"
2024-01-01T01:00:00.000,subway,126,Jefferson St (L),Brooklyn,metrocard,Metrocard - Full Fare,32.0,0.0,40.706608,-73.92291,"{'type': 'Point', 'coordinates': [-73.92291, 40.706608]}"
2024-01-01T01:00:00.000,subway,359,"Flatbush Av-Brooklyn College (2,5)",Brooklyn,metrocard,Metrocard - Full Fare,8.0,1.0,40.632835,-73.94764,"{'type': 'Point', 'coordinates': [-73.94764, 40.632835]}"
2024-01-01T01:00:00.000,subway,177,Clinton-Washington Avs (C),Brooklyn,metrocard,Metrocard - Unlimited 7-Day,2.0,0.0,40.68326,-73.965836,"{'type': 'Point', 'coordinates': [-73.965836, 40.68326]}"
2024-01-01T01:00:00.000,subway,314,66 St-Lincoln Center (1),Manhattan,metrocard,Metrocard - Full Fare,42.0,0.0,40.77344,-73.98221,"{'type': 'Point', 'coordinates': [-73.98221, 40.77344]}"
2024-01-01T01:00:00.000,subway,347,Saratoga Av (3),Brooklyn,omny,OMNY - Full Fare,3.0,0.0,40.661453,-73.91633,"{'type': 'Point', 'coordinates': [-73.91633, 40.661453]}"
2024-01-01T01:00:00.000,tram,TRAM1,RI Tramway (Manhattan),Manhattan,metrocard,Metrocard - Unlimited 7-Day,20.0,0.0,40.761337,-73.96416,"{'type': 'Point', 'coordinates': [-73.96416, 40.761337]}"
2024-01-01T01:00:00.000,subway,320,23 St (1),Manhattan,metrocard,Metrocard - Seniors & Disability,7.0,0.0,40.74408,-73.99566,"{'type': 'Point', 'coordinates': [-73.99566, 40.74408]}"
2024-01-01T01:00:00.000,subway,237,"Carroll St (F,G)",Brooklyn,metrocard,Metrocard - Seniors & Disability,1.0,0.0,40.6803,-73.99505,"{'type': 'Point', 'coordinates': [-73.99505, 40.6803]}"
2024-01-01T01:00:00.000,subway,135,Livonia Av (L),Brooklyn,metrocard,Metrocard - Full Fare,2.0,0.0,40.66404,-73.90057,"{'type': 'Point', 'coordinates': [-73.90057, 40.66404]}"
2024-01-01T01:00:00.000,subway,456,61 St-Woodside (7),Queens,metrocard,Metrocard - Other,1.0,0.0,40.74563,-73.902985,"{'type': 'Point', 'coordinates': [-73.902985, 40.74563]}"
2024-01-01T01:00:00.000,subway,283,Greenpoint Av (G),Brooklyn,metrocard,Metrocard - Other,5.0,0.0,40.731354,-73.95445,"{'type': 'Point', 'coordinates': [-73.95445, 40.731354]}"
2024-01-01T01:00:00.000,subway,44,"Church Av (B,Q)",Brooklyn,metrocard,Metrocard - Fair Fare,2.0,0.0,40.650528,-73.96298,"{'type': 'Point', 'coordinates': [-73.96298, 40.650528]}"
2024-01-01T01:00:00.000,subway,33,45 St (R),Brooklyn,metrocard,Metrocard - Unlimited 30-Day,7.0,0.0,40.648937,-74.01001,"{'type': 'Point', 'coordinates': [-74.01001, 40.648937]}"
2024-01-01T01:00:00.000,subway,110,Forest Av (M),Queens,metrocard,Metrocard - Full Fare,1.0,0.0,40.704422,-73.903076,"{'type': 'Point', 'coordinates': [-73.903076, 40.704422]}"
2024-01-01T01:00:00.000,subway,240,"7 Av (F,G)",Brooklyn,metrocard,Metrocard - Unlimited 30-Day,12.0,0.0,40.66627,-73.98031,"{'type': 'Point', 'coordinates': [-73.98031, 40.66627]}"
2024-01-01T01:00:00.000,subway,607,"34 St-Herald Sq (B,D,F,M,N,Q,R,W)",Manhattan,metrocard,Metrocard - Seniors & Disability,24.0,1.0,40.749718,-73.98782,"{'type': 'Point', 'coordinates': [-73.98782, 40.749718]}"
2024-01-01T01:00:00.000,subway,354,"Sterling St (2,5)",Brooklyn,metrocard,Metrocard - Fair Fare,1.0,0.0,40.662743,-73.95085,"{'type': 'Point', 'coordinates': [-73.95085, 40.662743]}"
2024-01-01T01:00:00.000,subway,44,"Church Av (B,Q)",Brooklyn,metrocard,Metrocard - Other,1.0,0.0,40.650528,-73.96298,"{'type': 'Point', 'coordinates': [-73.96298, 40.650528]}"
2024-01-01T01:00:00.000,subway,288,Myrtle-Willoughby Avs (G),Brooklyn,metrocard,Metrocard - Fair Fare,2.0,0.0,40.69457,-73.94904,"{'type': 'Point', 'coordinates': [-73.94904, 40.69457]}"
2024-01-01T01:00:00.000,subway,16,"8 St-NYU (R,W)",Manhattan,metrocard,Metrocard - Fair Fare,2.0,0.0,40.730328,-73.99263,"{'type': 'Point', 'coordinates': [-73.99263, 40.730328]}"
2024-01-01T01:00:00.000,subway,636,"Jay St-MetroTech (A,C,F,R)",Brooklyn,metrocard,Metrocard - Unlimited 30-Day,14.0,0.0,40.692337,-73.98594,"{'type': 'Point', 'coordinates': [-73.98594, 40.692337]}"
2024-01-01T01:00:00.000,subway,277,"7 Av (E,B,D)",Manhattan,omny,OMNY - Full Fare,313.0,0.0,40.762863,-73.981636,"{'type': 'Point', 'coordinates': [-73.981636, 40.762863]}"
2024-01-01T01:00:00.000,subway,616,"74-Broadway (7)/Jackson Hts-Roosevelt Av (E,F,M,R)",Queens,metrocard,Metrocard - Other,11.0,0.0,40.74685,-73.891335,"{'type': 'Point', 'coordinates': [-73.891335, 40.74685]}"
2024-01-01T01:00:00.000,subway,120,Bedford Av (L),Brooklyn,metrocard,Metrocard - Fair Fare,10.0,0.0,40.717304,-73.95687,"{'type': 'Point', 'coordinates': [-73.95687, 40.717304]}"
2024-01-01T01:00:00.000,subway,477,72 St (Q),Manhattan,metrocard,Metrocard - Unlimited 30-Day,3.0,0.0,40.7688,-73.95843,"{'type': 'Point', 'coordinates': [-73.95843, 40.7688]}"
2024-01-01T01:00:00.000,subway,22,"Rector St (R,W)",Manhattan,metrocard,Metrocard - Unlimited 7-Day,3.0,0.0,40.70722,-74.01334,"{'type': 'Point', 'coordinates': [-74.01334, 40.70722]}"
2024-01-01T01:00:00.000,subway,232,2 Av (F),Manhattan,metrocard,Metrocard - Full Fare,50.0,0.0,40.7234,-73.98994,"{'type': 'Point', 'coordinates': [-73.98994, 40.7234]}"
2024-01-01T01:00:00.000,subway,624,"Chambers St (A,C)/WTC (E)/Park Pl (2,3)/Cortlandt (R,W)",Manhattan,metrocard,Metrocard - Unlimited 30-Day,18.0,0.0,40.71411,-74.00858,"{'type': 'Point', 'coordinates': [-74.00858, 40.71411]}"
2024-01-01T01:00:00.000,subway,314,66 St-Lincoln Center (1),Manhattan,metrocard,Metrocard - Seniors & Disability,20.0,0.0,40.77344,-73.98221,"{'type': 'Point', 'coordinates': [-73.98221, 40.77344]}"
2024-01-01T01:00:00.000,subway,429,"Freeman St (2,5)",Bronx,omny,OMNY - Full Fare,2.0,0.0,40.829994,-73.89187,"{'type': 'Point', 'coordinates': [-73.89187, 40.829994]}"
2024-01-01T01:00:00.000,subway,397,"86 St (4,5,6)",Manhattan,metrocard,Metrocard - Full Fare,36.0,0.0,40.77949,-73.95559,"{'type': 'Point', 'coordinates': [-73.95559, 40.77949]}"
2024-01-01T01:00:00.000,subway,419,"225 St (2,5)",Bronx,omny,OMNY - Full Fare,2.0,0.0,40.888023,-73.860344,"{'type': 'Point', 'coordinates': [-73.860344, 40.888023]}"
2024-01-01T01:00:00.000,subway,312,79 St (1),Manhattan,metrocard,Metrocard - Unlimited 7-Day,22.0,0.0,40.783936,-73.97992,"{'type': 'Point', 'coordinates': [-73.97992, 40.783936]}"
2024-01-01T01:00:00.000,subway,269,"Northern Blvd (M,R)",Queens,omny,OMNY - Full Fare,20.0,2.0,40.752884,-73.906006,"{'type': 'Point', 'coordinates': [-73.906006, 40.752884]}"
2024-01-01T01:00:00.000,subway,57,"W 8 St-NY Aquarium (F,Q)",Brooklyn,omny,OMNY - Full Fare,23.0,0.0,40.576126,-73.97594,"{'type': 'Point', 'coordinates': [-73.97594, 40.576126]}"
2024-01-01T01:00:00.000,subway,377,3 Av-138 St (6),Bronx,metrocard,Metrocard - Fair Fare,3.0,0.0,40.810474,-73.92614,"{'type': 'Point', 'coordinates': [-73.92614, 40.810474]}"
2024-01-01T01:00:00.000,subway,199,"Broad Channel (A,S)",Queens,omny,OMNY - Full Fare,2.0,0.0,40.608383,-73.815926,"{'type': 'Point', 'coordinates': [-73.815926, 40.608383]}"
2024-01-01T01:00:00.000,subway,99,"Lorimer St (M,J)",Brooklyn,metrocard,Metrocard - Unlimited 30-Day,5.0,0.0,40.70387,-73.94741,"{'type': 'Point', 'coordinates': [-73.94741, 40.70387]}"
2024-01-01T01:00:00.000,subway,383,183 St (4),Bronx,metrocard,Metrocard - Seniors & Disability,1.0,0.0,40.858406,-73.90388,"{'type': 'Point', 'coordinates': [-73.90388, 40.858406]}"
2024-01-01T01:00:00.000,subway,103,"Bowery (J,Z)",Manhattan,metrocard,Metrocard - Other,1.0,0.0,40.72028,-73.99391,"{'type': 'Point', 'coordinates': [-73.99391, 40.72028]}"
2024-01-01T01:00:00.000,subway,358,"Newkirk Av-Little Haiti (2,5)",Brooklyn,omny,OMNY - Full Fare,8.0,0.0,40.63997,-73.94841,"{'type': 'Point', 'coordinates': [-73.94841, 40.63997]}"
2024-01-01T01:00:00.000,subway,217,"170 St (B,D)",Bronx,metrocard,Metrocard - Unlimited 30-Day,1.0,0.0,40.839306,-73.9134,"{'type': 'Point', 'coordinates': [-73.9134, 40.839306]}"
2024-01-01T01:00:00.000,subway,182,Ralph Av (C),Brooklyn,metrocard,Metrocard - Unlimited 7-Day,3.0,0.0,40.67882,-73.920784,"{'type': 'Point', 'coordinates': [-73.920784, 40.67882]}"
2024-01-01T01:00:00.000,subway,428,"174 St (2,5)",Bronx,omny,OMNY - Full Fare,9.0,0.0,40.837288,-73.88773,"{'type': 'Point', 'coordinates': [-73.88773, 40.837288]}"
2024-01-01T01:00:00.000,subway,296,Marble Hill-225 St (1),Manhattan,metrocard,Metrocard - Fair Fare,2.0,0.0,40.87456,-73.90983,"{'type': 'Point', 'coordinates': [-73.90983, 40.87456]}"
2024-01-01T01:00:00.000,subway,613,"Lexington Av (N,R,W)/59 St (4,5,6)",Manhattan,metrocard,Metrocard - Unlimited 7-Day,75.0,0.0,40.76266,-73.967255,"{'type': 'Point', 'coordinates': [-73.967255, 40.76266]}"
2024-01-01T01:00:00.000,subway,413,"Wall St (4,5)",Manhattan,metrocard,Metrocard - Seniors & Disability,1.0,0.0,40.707558,-74.01186,"{'type': 'Point', 'coordinates': [-74.01186, 40.707558]}"
2024-01-01T01:00:00.000,subway,213,"Fordham Rd (B,D)",Bronx,metrocard,Metrocard - Other,2.0,0.0,40.861298,-73.89775,"{'type': 'Point', 'coordinates': [-73.89775, 40.861298]}"
2024-01-01T01:00:00.000,subway,252,Avenue X (F),Brooklyn,metrocard,Metrocard - Full Fare,5.0,0.0,40.58962,-73.97425,"{'type': 'Point', 'coordinates': [-73.97425, 40.58962]}"
2024-01-01T01:00:00.000,subway,203,"Rockaway Park-Beach 116 St (A,S)",Queens,metrocard,Metrocard - Other,1.0,0.0,40.580902,-73.835594,"{'type': 'Point', 'coordinates': [-73.835594, 40.580902]}"
2024-01-01T01:00:00.000,subway,326,Franklin St (1),Manhattan,metrocard,Metrocard - Full Fare,22.0,0.0,40.71932,-74.00689,"{'type': 'Point', 'coordinates': [-74.00689, 40.71932]}"
2024-01-01T01:00:00.000,subway,95,"Gates Av (J,Z)",Brooklyn,metrocard,Metrocard - Fair Fare,1.0,0.0,40.68963,-73.92227,"{'type': 'Point', 'coordinates': [-73.92227, 40.68963]}"
2024-01-01T01:00:00.000,subway,630,"Myrtle-Wyckoff Avs (L,M)",Brooklyn,metrocard,Metrocard - Fair Fare,2.0,0.0,40.699814,-73.91158,"{'type': 'Point', 'coordinates': [-73.91158, 40.699814]}"
2024-01-01T01:00:00.000,subway,453,82 St-Jackson Hts (7),Queens,metrocard,Metrocard - Other,2.0,0.0,40.747658,-73.8837,"{'type': 'Point', 'coordinates': [-73.8837, 40.747658]}"
2024-01-01T01:00:00.000,subway,380,Bedford Park Blvd-Lehman College (4),Bronx,metrocard,Metrocard - Fair Fare,2.0,0.0,40.873413,-73.89006,"{'type': 'Point', 'coordinates': [-73.89006, 40.873413]}"
2024-01-01T01:00:00.000,subway,235,York St (F),Brooklyn,omny,OMNY - Full Fare,358.0,0.0,40.701397,-73.98675,"{'type': 'Point', 'coordinates': [-73.98675, 40.701397]}"
2024-01-01T01:00:00.000,subway,206,Beach 44 St (A),Queens,metrocard,Metrocard - Fair Fare,1.0,0.0,40.59294,-73.77602,"{'type': 'Point', 'coordinates': [-73.77602, 40.59294]}"
2024-01-01T01:00:00.000,subway,145,190 St (A),Manhattan,omny,OMNY - Full Fare,3.0,0.0,40.85902,-73.93418,"{'type': 'Point', 'coordinates': [-73.93418, 40.85902]}"
2024-01-01T01:00:00.000,subway,55,"Brighton Beach (B,Q)",Brooklyn,metrocard,Metrocard - Unlimited 30-Day,4.0,0.0,40.57762,-73.96137,"{'type': 'Point', 'coordinates': [-73.96137, 40.57762]}"
2024-01-01T01:00:00.000,subway,46,Cortelyou Rd (Q),Brooklyn,metrocard,Metrocard - Other,1.0,0.0,40.640926,-73.96389,"{'type': 'Point', 'coordinates': [-73.96389, 40.640926]}"
2024-01-01T01:00:00.000,subway,1,"Astoria-Ditmars Blvd (N,W)",Queens,metrocard,Metrocard - Unlimited 30-Day,7.0,0.0,40.775036,-73.91203,"{'type': 'Point', 'coordinates': [-73.91203, 40.775036]}"
2024-01-01T01:00:00.000,subway,461,"Queensboro Plaza (7,N,W)",Queens,metrocard,Metrocard - Fair Fare,5.0,0.0,40.750584,-73.9402,"{'type': 'Point', 'coordinates': [-73.9402, 40.750584]}"
2024-01-01T01:00:00.000,subway,427,"West Farms Sq-E Tremont Av (2,5)",Bronx,metrocard,Metrocard - Unlimited 7-Day,2.0,0.0,40.840294,-73.88005,"{'type': 'Point', 'coordinates': [-73.88005, 40.840294]}"
2024-01-01T01:00:00.000,subway,300,191 St (1),Manhattan,metrocard,Metrocard - Unlimited 30-Day,1.0,0.0,40.855225,-73.92941,"{'type': 'Point', 'coordinates': [-73.92941, 40.855225]}"
2024-01-01T01:00:00.000,subway,603,"149 St-Grand Concourse (2,4,5)",Bronx,metrocard,Metrocard - Fair Fare,7.0,0.0,40.818375,-73.92735,"{'type': 'Point', 'coordinates': [-73.92735, 40.818375]}"
2024-01-01T01:00:00.000,subway,8,"5 Av/59 St (N,R,W)",Manhattan,metrocard,Metrocard - Full Fare,36.0,0.0,40.764812,-73.97335,"{'type': 'Point', 'coordinates': [-73.97335, 40.764812]}"
2024-01-01T01:00:00.000,subway,436,Harlem-148 St (3),Manhattan,omny,OMNY - Full Fare,10.0,0.0,40.82388,-73.93647,"{'type': 'Point', 'coordinates': [-73.93647, 40.82388]}"
2024-01-01T01:00:00.000,subway,41,"7 Av (B,Q)",Brooklyn,metrocard,Metrocard - Other,4.0,0.0,40.67705,-73.97237,"{'type': 'Point', 'coordinates': [-73.97237, 40.67705]}"
2024-01-01T01:00:00.000,subway,327,"Chambers St (1,2,3)",Manhattan,metrocard,Metrocard - Unlimited 7-Day,10.0,0.0,40.715477,-74.00927,"{'type': 'Point', 'coordinates': [-74.00927, 40.715477]}"
2024-01-01T01:00:00.000,subway,129,Halsey St (L),Queens,metrocard,Metrocard - Unlimited 7-Day,2.0,0.0,40.695602,-73.90408,"{'type': 'Point', 'coordinates': [-73.90408, 40.695602]}"
2024-01-01T01:00:00.000,subway,127,DeKalb Av (L),Brooklyn,omny,OMNY - Full Fare,193.0,0.0,40.70381,-73.91843,"{'type': 'Point', 'coordinates': [-73.91843, 40.70381]}"
2024-01-01T01:00:00.000,subway,196,Aqueduct Racetrack (A),Queens,omny,OMNY - Full Fare,2.0,0.0,40.672096,-73.83592,"{'type': 'Point', 'coordinates': [-73.83592, 40.672096]}"
2024-01-01T01:00:00.000,subway,358,"Newkirk Av-Little Haiti (2,5)",Brooklyn,metrocard,Metrocard - Unlimited 7-Day,3.0,0.0,40.63997,-73.94841,"{'type': 'Point', 'coordinates': [-73.94841, 40.63997]}"
2024-01-01T01:00:00.000,subway,276,"5 Av/53 St (E,M)",Manhattan,metrocard,Metrocard - Unlimited 7-Day,81.0,0.0,40.760166,-73.97523,"{'type': 'Point', 'coordinates': [-73.97523, 40.760166]}"
2024-01-01T01:00:00.000,subway,434,"3 Av-149 St (2,5)",Bronx,omny,OMNY - Full Fare,18.0,2.0,40.81611,-73.917755,"{'type': 'Point', 'coordinates': [-73.917755, 40.81611]}"
2024-01-01T01:00:00.000,subway,36,Bay Ridge Av (R),Brooklyn,metrocard,Metrocard - Full Fare,3.0,0.0,40.634968,-74.02338,"{'type': 'Point', 'coordinates': [-74.02338, 40.634968]}"
2024-01-01T01:00:00.000,subway,153,"125 St (A,C,B,D)",Manhattan,metrocard,Metrocard - Seniors & Disability,3.0,0.0,40.811108,-73.95235,"{'type': 'Point', 'coordinates': [-73.95235, 40.811108]}"
2024-01-01T01:00:00.000,subway,77,Kings Hwy (N),Brooklyn,metrocard,Metrocard - Seniors & Disability,1.0,0.0,40.603924,-73.980354,"{'type': 'Point', 'coordinates': [-73.980354, 40.603924]}"
2024-01-01T01:00:00.000,subway,309,103 St (1),Manhattan,omny,OMNY - Full Fare,111.0,0.0,40.799446,-73.968376,"{'type': 'Point', 'coordinates': [-73.968376, 40.799446]}"
2024-01-01T01:00:00.000,subway,123,Grand St (L),Brooklyn,metrocard,Metrocard - Unlimited 30-Day,6.0,0.0,40.711926,-73.94067,"{'type': 'Point', 'coordinates': [-73.94067, 40.711926]}"
2024-01-01T01:00:00.000,subway,123,Grand St (L),Brooklyn,metrocard,Metrocard - Full Fare,15.0,0.0,40.711926,-73.94067,"{'type': 'Point', 'coordinates': [-73.94067, 40.711926]}"
2024-01-01T01:00:00.000,subway,55,"Brighton Beach (B,Q)",Brooklyn,metrocard,Metrocard - Unlimited 7-Day,3.0,0.0,40.57762,-73.96137,"{'type': 'Point', 'coordinates': [-73.96137, 40.57762]}"
2024-01-01T01:00:00.000,subway,57,"W 8 St-NY Aquarium (F,Q)",Brooklyn,metrocard,Metrocard - Seniors & Disability,1.0,0.0,40.576126,-73.97594,"{'type': 'Point', 'coordinates': [-73.97594, 40.576126]}"
2024-01-01T01:00:00.000,subway,60,Fort Hamilton Pkwy (D),Brooklyn,omny,OMNY - Full Fare,8.0,0.0,40.640915,-73.9943,"{'type': 'Point', 'coordinates': [-73.9943, 40.640915]}"
2024-01-01T01:00:00.000,subway,609,"Bryant Pk (B,D,F,M)/5 Av (7)",Manhattan,metrocard,Metrocard - Fair Fare,23.0,0.0,40.754223,-73.981964,"{'type': 'Point', 'coordinates': [-73.981964, 40.754223]}"
2024-01-01T01:00:00.000,subway,366,Parkchester (6),Bronx,metrocard,Metrocard - Unlimited 7-Day,7.0,0.0,40.833225,-73.86082,"{'type': 'Point', 'coordinates': [-73.86082, 40.833225]}"
2024-01-01T01:00:00.000,subway,208,Beach 25 St (A),Queens,metrocard,Metrocard - Unlimited 30-Day,1.0,0.0,40.600067,-73.76135,"{'type': 'Point', 'coordinates': [-73.76135, 40.600067]}"
2024-01-01T01:00:00.000,subway,261,"Forest Hills-71 Av (E,F,M,R)",Queens,metrocard,Metrocard - Unlimited 30-Day,6.0,0.0,40.72169,-73.84452,"{'type': 'Point', 'coordinates': [-73.84452, 40.72169]}"
2024-01-01T01:00:00.000,subway,344,Kingston Av (3),Brooklyn,metrocard,Metrocard - Other,3.0,0.0,40.6694,-73.94216,"{'type': 'Point', 'coordinates': [-73.94216, 40.6694]}"
2024-01-01T01:00:00.000,subway,260,"75 Av (E,F)",Queens,metrocard,Metrocard - Full Fare,3.0,0.0,40.71833,-73.837326,"{'type': 'Point', 'coordinates': [-73.837326, 40.71833]}"
2024-01-01T01:00:00.000,subway,177,Clinton-Washington Avs (C),Brooklyn,omny,OMNY - Seniors & Disability,1.0,0.0,40.68326,-73.965836,"{'type': 'Point', 'coordinates': [-73.965836, 40.68326]}"
2024-01-01T01:00:00.000,subway,606,"Court Sq (E,G,M,7)",Queens,omny,OMNY - Full Fare,164.0,0.0,40.747845,-73.94383,"{'type': 'Point', 'coordinates': [-73.94383, 40.747845]}"
2024-01-01T01:00:00.000,subway,397,"86 St (4,5,6)",Manhattan,metrocard,Metrocard - Fair Fare,5.0,0.0,40.77949,-73.95559,"{'type': 'Point', 'coordinates': [-73.95559, 40.77949]}"
2024-01-01T01:00:00.000,subway,215,"Tremont Av (B,D)",Bronx,metrocard,Metrocard - Fair Fare,3.0,0.0,40.85041,-73.90523,"{'type': 'Point', 'coordinates': [-73.90523, 40.85041]}"
2024-01-01T01:00:00.000,subway,635,"South Ferry (1)/Whitehall St (R,W)",Manhattan,metrocard,Metrocard - Seniors & Disability,2.0,1.0,40.70207,-74.013664,"{'type': 'Point', 'coordinates': [-74.013664, 40.70207]}"
2024-01-01T01:00:00.000,subway,4,"Broadway (N,W)",Queens,metrocard,Metrocard - Unlimited 30-Day,5.0,0.0,40.76182,-73.92551,"{'type': 'Point', 'coordinates': [-73.92551, 40.76182]}"
2024-01-01T01:00:00.000,subway,122,Graham Av (L),Brooklyn,metrocard,Metrocard - Unlimited 30-Day,10.0,0.0,40.714565,-73.94405,"{'type': 'Point', 'coordinates': [-73.94405, 40.714565]}"
2024-01-01T01:00:00.000,subway,318,"34 St-Penn Station (1,2,3)",Manhattan,metrocard,Metrocard - Full Fare,304.0,0.0,40.750374,-73.99106,"{'type': 'Point', 'coordinates': [-73.99106, 40.750374]}"
2024-01-01T01:00:00.000,subway,476,86 St (Q),Manhattan,metrocard,Metrocard - Seniors & Disability,3.0,0.0,40.77789,-73.95179,"{'type': 'Point', 'coordinates': [-73.95179, 40.77789]}"
2024-01-01T01:00:00.000,subway,306,125 St (1),Manhattan,metrocard,Metrocard - Other,1.0,0.0,40.815582,-73.958374,"{'type': 'Point', 'coordinates': [-73.958374, 40.815582]}"
2024-01-01T01:00:00.000,subway,337,"Nevins St (2,3,4,5)",Brooklyn,metrocard,Metrocard - Unlimited 7-Day,13.0,0.0,40.688248,-73.98049,"{'type': 'Point', 'coordinates': [-73.98049, 40.688248]}"
2024-01-01T01:00:00.000,subway,223,"Lexington Av/63 St (F,Q)",Manhattan,metrocard,Metrocard - Fair Fare,2.0,0.0,40.76463,-73.96611,"{'type': 'Point', 'coordinates': [-73.96611, 40.76463]}"
2024-01-01T01:00:00.000,subway,159,"81 St-Museum of Natural History (C,B)",Manhattan,metrocard,Metrocard - Seniors & Disability,5.0,0.0,40.781433,-73.972145,"{'type': 'Point', 'coordinates': [-73.972145, 40.781433]}"
2024-01-01T01:00:00.000,subway,301,181 St (1),Manhattan,metrocard,Metrocard - Unlimited 7-Day,10.0,0.0,40.849506,-73.93359,"{'type': 'Point', 'coordinates': [-73.93359, 40.849506]}"
2024-01-01T01:00:00.000,subway,363,Westchester Sq-E Tremont Av (6),Bronx,metrocard,Metrocard - Unlimited 30-Day,1.0,0.0,40.839893,-73.84295,"{'type': 'Point', 'coordinates': [-73.84295, 40.839893]}"
2024-01-01T01:00:00.000,subway,134,Sutter Av (L),Brooklyn,metrocard,Metrocard - Unlimited 7-Day,2.0,0.0,40.66937,-73.90198,"{'type': 'Point', 'coordinates': [-73.90198, 40.66937]}"
2024-01-01T01:00:00.000,subway,441,"Central Park North (110 St) (2,3)",Manhattan,metrocard,Metrocard - Unlimited 7-Day,2.0,0.0,40.799076,-73.95182,"{'type': 'Point', 'coordinates': [-73.95182, 40.799076]}"
2024-01-01T01:00:00.000,subway,189,Grant Av (A),Brooklyn,omny,OMNY - Full Fare,5.0,0.0,40.677044,-73.86505,"{'type': 'Point', 'coordinates': [-73.86505, 40.677044]}"
2024-01-01T01:00:00.000,subway,22,"Rector St (R,W)",Manhattan,omny,OMNY - Full Fare,17.0,0.0,40.70722,-74.01334,"{'type': 'Point', 'coordinates': [-74.01334, 40.70722]}"
2024-01-01T01:00:00.000,subway,364,Zerega Av (6),Bronx,metrocard,Metrocard - Full Fare,2.0,0.0,40.836487,-73.84704,"{'type': 'Point', 'coordinates': [-73.84704, 40.836487]}"
2024-01-01T01:00:00.000,subway,32,"36 St (D,N,R)",Brooklyn,metrocard,Metrocard - Unlimited 30-Day,4.0,0.0,40.655144,-74.00355,"{'type': 'Point', 'coordinates': [-74.00355, 40.655144]}"
2024-01-01T01:00:00.000,subway,308,Cathedral Pkwy (110 St) (1),Manhattan,metrocard,Metrocard - Full Fare,12.0,0.0,40.803967,-73.96685,"{'type': 'Point', 'coordinates': [-73.96685, 40.803967]}"
2024-01-01T01:00:00.000,subway,231,"Grand St (B,D)",Manhattan,omny,OMNY - Full Fare,380.0,0.0,40.718266,-73.99375,"{'type': 'Point', 'coordinates': [-73.99375, 40.718266]}"
2024-01-01T01:00:00.000,subway,58,"Coney Island-Stillwell Av (D,F,N,Q)",Brooklyn,metrocard,Metrocard - Fair Fare,5.0,0.0,40.577423,-73.98123,"{'type': 'Point', 'coordinates': [-73.98123, 40.577423]}"
2024-01-01T01:00:00.000,subway,452,90 St-Elmhurst Av (7),Queens,metrocard,Metrocard - Seniors & Disability,4.0,0.0,40.74841,-73.87661,"{'type': 'Point', 'coordinates': [-73.87661, 40.74841]}"
2024-01-01T01:00:00.000,subway,131,Bushwick Av-Aberdeen St (L),Brooklyn,metrocard,Metrocard - Full Fare,4.0,0.0,40.68283,-73.90525,"{'type': 'Point', 'coordinates': [-73.90525, 40.68283]}"
2024-01-01T01:00:00.000,subway,303,157 St (1),Manhattan,metrocard,Metrocard - Unlimited 7-Day,7.0,0.0,40.83404,-73.94489,"{'type': 'Point', 'coordinates': [-73.94489, 40.83404]}"
2024-01-01T01:00:00.000,subway,235,York St (F),Brooklyn,metrocard,Metrocard - Other,4.0,0.0,40.701397,-73.98675,"{'type': 'Point', 'coordinates': [-73.98675, 40.701397]}"
2024-01-01T01:00:00.000,subway,134,Sutter Av (L),Brooklyn,omny,OMNY - Full Fare,9.0,0.0,40.66937,-73.90198,"{'type': 'Point', 'coordinates': [-73.90198, 40.66937]}"
2024-01-01T01:00:00.000,subway,235,York St (F),Brooklyn,metrocard,Metrocard - Full Fare,40.0,0.0,40.701397,-73.98675,"{'type': 'Point', 'coordinates': [-73.98675, 40.701397]}"
2024-01-01T01:00:00.000,subway,180,Kingston-Throop Avs (C),Brooklyn,omny,OMNY - Full Fare,105.0,0.0,40.67992,-73.94086,"{'type': 'Point', 'coordinates': [-73.94086, 40.67992]}"
2024-01-01T01:00:00.000,subway,303,157 St (1),Manhattan,metrocard,Metrocard - Seniors & Disability,2.0,0.0,40.83404,-73.94489,"{'type': 'Point', 'coordinates': [-73.94489, 40.83404]}"
2024-01-01T01:00:00.000,subway,145,190 St (A),Manhattan,metrocard,Metrocard - Other,2.0,0.0,40.85902,-73.93418,"{'type': 'Point', 'coordinates': [-73.93418, 40.85902]}"
2024-01-01T01:00:00.000,subway,340,"Grand Army Plaza (2,3)",Brooklyn,metrocard,Metrocard - Seniors & Disability,2.0,0.0,40.675236,-73.97105,"{'type': 'Point', 'coordinates': [-73.97105, 40.675236]}"
2024-01-01T01:00:00.000,subway,189,Grant Av (A),Brooklyn,metrocard,Metrocard - Other,1.0,0.0,40.677044,-73.86505,"{'type': 'Point', 'coordinates': [-73.86505, 40.677044]}"
2024-01-01T01:00:00.000,subway,159,"81 St-Museum of Natural History (C,B)",Manhattan,omny,OMNY - Seniors & Disability,1.0,0.0,40.781433,-73.972145,"{'type': 'Point', 'coordinates': [-73.972145, 40.781433]}"
2024-01-01T01:00:00.000,subway,255,169 St (F),Queens,omny,OMNY - Full Fare,4.0,0.0,40.71047,-73.7936,"{'type': 'Point', 'coordinates': [-73.7936, 40.71047]}"
2024-01-01T01:00:00.000,subway,458,46 St-Bliss St (7),Queens,metrocard,Metrocard - Unlimited 30-Day,8.0,0.0,40.743134,-73.918434,"{'type': 'Point', 'coordinates': [-73.918434, 40.743134]}"
2024-01-01T01:00:00.000,subway,126,Jefferson St (L),Brooklyn,metrocard,Metrocard - Unlimited 7-Day,10.0,0.0,40.706608,-73.92291,"{'type': 'Point', 'coordinates': [-73.92291, 40.706608]}"
2024-01-01T01:00:00.000,subway,636,"Jay St-MetroTech (A,C,F,R)",Brooklyn,metrocard,Metrocard - Seniors & Disability,5.0,0.0,40.692337,-73.98734,"{'type': 'Point', 'coordinates': [-73.98734, 40.692337]}"
2024-01-01T01:00:00.000,subway,4,"Broadway (N,W)",Queens,metrocard,Metrocard - Full Fare,12.0,0.0,40.76182,-73.92551,"{'type': 'Point', 'coordinates': [-73.92551, 40.76182]}"
2024-01-01T01:00:00.000,subway,257,Sutphin Blvd (F),Queens,metrocard,Metrocard - Unlimited 7-Day,4.0,0.0,40.70546,-73.81071,"{'type': 'Point', 'coordinates': [-73.81071, 40.70546]}"
2024-01-01T01:00:00.000,subway,93,"Chauncey St (J,Z)",Brooklyn,metrocard,Metrocard - Full Fare,4.0,0.0,40.68289,-73.91045,"{'type': 'Point', 'coordinates': [-73.91045, 40.68289]}"
2024-01-01T01:00:00.000,subway,396,96 St (6),Manhattan,metrocard,Metrocard - Seniors & Disability,4.0,1.0,40.78567,-73.95107,"{'type': 'Point', 'coordinates': [-73.95107, 40.78567]}"
2024-01-01T01:00:00.000,subway,182,Ralph Av (C),Brooklyn,metrocard,Metrocard - Seniors & Disability,1.0,0.0,40.67882,-73.920784,"{'type': 'Point', 'coordinates': [-73.920784, 40.67882]}"
2024-01-01T01:00:00.000,subway,339,"Bergen St (2,3)",Brooklyn,metrocard,Metrocard - Full Fare,6.0,0.0,40.68083,-73.9751,"{'type': 'Point', 'coordinates': [-73.9751, 40.68083]}"
2024-01-01T01:00:00.000,subway,232,2 Av (F),Manhattan,metrocard,Metrocard - Fair Fare,6.0,0.0,40.7234,-73.98994,"{'type': 'Point', 'coordinates': [-73.98994, 40.7234]}"
2024-01-01T01:00:00.000,subway,204,Beach 67 St (A),Queens,omny,OMNY - Full Fare,7.0,0.0,40.590927,-73.79692,"{'type': 'Point', 'coordinates': [-73.79692, 40.590927]}"
2024-01-01T01:00:00.000,subway,20,"City Hall (R,W)",Manhattan,metrocard,Metrocard - Full Fare,3.0,0.0,40.713284,-74.00698,"{'type': 'Point', 'coordinates': [-74.00698, 40.713284]}"
2024-01-01T01:00:00.000,subway,422,"Burke Av (2,5)",Bronx,omny,OMNY - Full Fare,7.0,0.0,40.871357,-73.867165,"{'type': 'Point', 'coordinates': [-73.867165, 40.871357]}"
2024-01-01T01:00:00.000,subway,627,"Franklin Av (C,S)",Brooklyn,metrocard,Metrocard - Unlimited 30-Day,16.0,0.0,40.68138,-73.95685,"{'type': 'Point', 'coordinates': [-73.95685, 40.68138]}"
2024-01-01T01:00:00.000,subway,261,"Forest Hills-71 Av (E,F,M,R)",Queens,metrocard,Metrocard - Fair Fare,2.0,0.0,40.72169,-73.84452,"{'type': 'Point', 'coordinates': [-73.84452, 40.72169]}"
2024-01-01T01:00:00.000,subway,33,45 St (R),Brooklyn,omny,OMNY - Full Fare,17.0,0.0,40.648937,-74.01001,"{'type': 'Point', 'coordinates': [-74.01001, 40.648937]}"
2024-01-01T01:00:00.000,subway,387,170 St (4),Bronx,omny,OMNY - Full Fare,2.0,0.0,40.840076,-73.91779,"{'type': 'Point', 'coordinates': [-73.91779, 40.840076]}"
2024-01-01T01:00:00.000,subway,249,Avenue P (F),Brooklyn,omny,OMNY - Full Fare,2.0,0.0,40.608944,-73.97302,"{'type': 'Point', 'coordinates': [-73.97302, 40.608944]}"
2024-01-01T01:00:00.000,subway,42,"Prospect Park (B,Q,S)",Brooklyn,metrocard,Metrocard - Seniors & Disability,1.0,0.0,40.661613,-73.96225,"{'type': 'Point', 'coordinates': [-73.96225, 40.661613]}"
2024-01-01T01:00:00.000,subway,458,46 St-Bliss St (7),Queens,metrocard,Metrocard - Seniors & Disability,1.0,0.0,40.743134,-73.918434,"{'type': 'Point', 'coordinates': [-73.918434, 40.743134]}"
2024-01-01T01:00:00.000,subway,218,"167 St (B,D)",Bronx,metrocard,Metrocard - Full Fare,3.0,0.0,40.83377,-73.91844,"{'type': 'Point', 'coordinates': [-73.91844, 40.83377]}"
2024-01-01T01:00:00.000,subway,237,"Carroll St (F,G)",Brooklyn,metrocard,Metrocard - Unlimited 7-Day,2.0,0.0,40.6803,-73.99505,"{'type': 'Point', 'coordinates': [-73.99505, 40.6803]}"
2024-01-01T01:00:00.000,subway,298,207 St (1),Manhattan,metrocard,Metrocard - Other,1.0,0.0,40.86462,-73.91882,"{'type': 'Point', 'coordinates': [-73.91882, 40.86462]}"
2024-01-01T01:00:00.000,subway,609,"Bryant Pk (B,D,F,M)/5 Av (7)",Manhattan,metrocard,Metrocard - Seniors & Disability,11.0,0.0,40.754223,-73.981964,"{'type': 'Point', 'coordinates': [-73.981964, 40.754223]}"
2024-01-01T01:00:00.000,subway,396,96 St (6),Manhattan,metrocard,Metrocard - Unlimited 30-Day,5.0,0.0,40.78567,-73.95107,"{'type': 'Point', 'coordinates': [-73.95107, 40.78567]}"
2024-01-01T01:00:00.000,subway,314,66 St-Lincoln Center (1),Manhattan,metrocard,Metrocard - Unlimited 30-Day,16.0,0.0,40.77344,-73.98221,"{'type': 'Point', 'coordinates': [-73.98221, 40.77344]}"
2024-01-01T01:00:00.000,subway,373,E 149 St (6),Bronx,metrocard,Metrocard - Other,1.0,0.0,40.81212,-73.9041,"{'type': 'Point', 'coordinates': [-73.9041, 40.81212]}"
2024-01-01T01:00:00.000,subway,384,Burnside Av (4),Bronx,metrocard,Metrocard - Unlimited 7-Day,4.0,0.0,40.853455,-73.907684,"{'type': 'Point', 'coordinates': [-73.907684, 40.853455]}"
2024-01-01T01:00:00.000,subway,83,"Woodhaven Blvd (J,Z)",Queens,metrocard,Metrocard - Full Fare,1.0,0.0,40.69388,-73.85158,"{'type': 'Point', 'coordinates': [-73.85158, 40.69388]}"
2024-01-01T01:00:00.000,subway,602,"14 St-Union Sq (L,N,Q,R,W,4,5,6)",Manhattan,omny,OMNY - Seniors & Disability,1.0,0.0,40.735737,-73.99057,"{'type': 'Point', 'coordinates': [-73.99057, 40.735737]}"
2024-01-01T01:00:00.000,subway,340,"Grand Army Plaza (2,3)",Brooklyn,metrocard,Metrocard - Fair Fare,6.0,0.0,40.675236,-73.97105,"{'type': 'Point', 'coordinates': [-73.97105, 40.675236]}"
2024-01-01T01:00:00.000,subway,179,"Nostrand Av (A,C)",Brooklyn,metrocard,Metrocard - Unlimited 7-Day,4.0,0.0,40.68044,-73.950424,"{'type': 'Point', 'coordinates': [-73.950424, 40.68044]}"
2024-01-01T01:00:00.000,subway,181,"Utica Av (A,C)",Brooklyn,metrocard,Metrocard - Unlimited 7-Day,8.0,0.0,40.679363,-73.93073,"{'type': 'Point', 'coordinates': [-73.93073, 40.679363]}"
2024-01-01T01:00:00.000,subway,329,Rector St (1),Manhattan,metrocard,Metrocard - Unlimited 7-Day,10.0,0.0,40.70751,-74.01379,"{'type': 'Point', 'coordinates': [-74.01379, 40.70751]}"
2024-01-01T01:00:00.000,subway,265,"Grand Av-Newtown (M,R)",Queens,metrocard,Metrocard - Fair Fare,3.0,0.0,40.737015,-73.87722,"{'type': 'Point', 'coordinates': [-73.87722, 40.737015]}"
2024-01-01T01:00:00.000,subway,308,Cathedral Pkwy (110 St) (1),Manhattan,metrocard,Metrocard - Fair Fare,2.0,0.0,40.803967,-73.96685,"{'type': 'Point', 'coordinates': [-73.96685, 40.803967]}"
2024-01-01T01:00:00.000,subway,43,Parkside Av (Q),Brooklyn,metrocard,Metrocard - Unlimited 7-Day,2.0,0.0,40.655293,-73.961494,"{'type': 'Point', 'coordinates': [-73.961494, 40.655293]}"
2024-01-01T01:00:00.000,subway,409,Spring St (6),Manhattan,omny,OMNY - Full Fare,443.0,0.0,40.7223,-73.99714,"{'type': 'Point', 'coordinates': [-73.99714, 40.7223]}"
2024-01-01T01:00:00.000,subway,288,Myrtle-Willoughby Avs (G),Brooklyn,omny,OMNY - Full Fare,64.0,0.0,40.69457,-73.94904,"{'type': 'Point', 'coordinates': [-73.94904, 40.69457]}"
2024-01-01T01:00:00.000,subway,457,52 St (7),Queens,metrocard,Metrocard - Unlimited 30-Day,9.0,0.0,40.74415,-73.91255,"{'type': 'Point', 'coordinates': [-73.91255, 40.74415]}"
2024-01-01T01:00:00.000,subway,96,Kosciuszko St (J),Brooklyn,metrocard,Metrocard - Unlimited 7-Day,3.0,0.0,40.69334,-73.92882,"{'type': 'Point', 'coordinates': [-73.92882, 40.69334]}"
2024-01-01T01:00:00.000,subway,328,WTC Cortlandt (1),Manhattan,metrocard,Metrocard - Fair Fare,1.0,0.0,40.711834,-74.01219,"{'type': 'Point', 'coordinates': [-74.01219, 40.711834]}"
2024-01-01T01:00:00.000,subway,65,79 St (D),Brooklyn,metrocard,Metrocard - Other,1.0,0.0,40.613503,-74.00061,"{'type': 'Point', 'coordinates': [-74.00061, 40.613503]}"
2024-01-01T01:00:00.000,subway,182,Ralph Av (C),Brooklyn,metrocard,Metrocard - Full Fare,2.0,0.0,40.67882,-73.920784,"{'type': 'Point', 'coordinates': [-73.920784, 40.67882]}"
2024-01-01T01:00:00.000,subway,4,"Broadway (N,W)",Queens,metrocard,Metrocard - Other,2.0,0.0,40.76182,-73.92551,"{'type': 'Point', 'coordinates': [-73.92551, 40.76182]}"
2024-01-01T01:00:00.000,subway,113,Knickerbocker Av (M),Brooklyn,metrocard,Metrocard - Full Fare,4.0,0.0,40.698666,-73.91971,"{'type': 'Point', 'coordinates': [-73.91971, 40.698666]}"
2024-01-01T01:00:00.000,subway,413,"Wall St (4,5)",Manhattan,metrocard,Metrocard - Unlimited 30-Day,5.0,0.0,40.707558,-74.01186,"{'type': 'Point', 'coordinates': [-74.01186, 40.707558]}"
2024-01-01T01:00:00.000,subway,475,96 St (Q),Manhattan,metrocard,Metrocard - Full Fare,3.0,0.0,40.784317,-73.94715,"{'type': 'Point', 'coordinates': [-73.94715, 40.784317]}"
2024-01-01T01:00:00.000,subway,618,"14 St (A,C,E)/8 Av (L)",Manhattan,metrocard,Metrocard - Unlimited 7-Day,93.0,0.0,40.740894,-74.00169,"{'type': 'Point', 'coordinates': [-74.00169, 40.740894]}"
2024-01-01T01:00:00.000,subway,114,Central Av (M),Brooklyn,metrocard,Metrocard - Other,1.0,0.0,40.697857,-73.9274,"{'type': 'Point', 'coordinates': [-73.9274, 40.697857]}"
2024-01-01T01:00:00.000,subway,34,53 St (R),Brooklyn,metrocard,Metrocard - Fair Fare,3.0,0.0,40.64507,-74.01403,"{'type': 'Point', 'coordinates': [-74.01403, 40.64507]}"
2024-01-01T01:00:00.000,subway,471,34 St-Hudson Yards (7),Manhattan,omny,OMNY - Full Fare,308.0,0.0,40.755882,-74.00191,"{'type': 'Point', 'coordinates': [-74.00191, 40.755882]}"
2024-01-01T01:00:00.000,subway,26,"DeKalb Av (B,Q,R)",Brooklyn,metrocard,Metrocard - Unlimited 7-Day,14.0,0.0,40.690636,-73.98183,"{'type': 'Point', 'coordinates': [-73.98183, 40.690636]}"
2024-01-01T01:00:00.000,subway,426,"E 180 St (2,5)",Bronx,omny,OMNY - Full Fare,13.0,0.0,40.841892,-73.87349,"{'type': 'Point', 'coordinates': [-73.87349, 40.841892]}"
2024-01-01T01:00:00.000,subway,414,"Bowling Green (4,5)",Manhattan,metrocard,Metrocard - Full Fare,18.0,0.0,40.70482,-74.01407,"{'type': 'Point', 'coordinates': [-74.01407, 40.70482]}"
2024-01-01T01:00:00.000,subway,350,Pennsylvania Av (3),Brooklyn,metrocard,Metrocard - Unlimited 30-Day,1.0,0.0,40.664635,-73.8949,"{'type': 'Point', 'coordinates': [-73.8949, 40.664635]}"
2024-01-01T01:00:00.000,subway,35,"59 St (N,R)",Brooklyn,metrocard,Metrocard - Seniors & Disability,1.0,0.0,40.64136,-74.01788,"{'type': 'Point', 'coordinates': [-74.01788, 40.64136]}"
2024-01-01T01:00:00.000,subway,235,York St (F),Brooklyn,metrocard,Metrocard - Fair Fare,2.0,0.0,40.701397,-73.98675,"{'type': 'Point', 'coordinates': [-73.98675, 40.701397]}"
2024-01-01T01:00:00.000,subway,325,Canal St (1),Manhattan,metrocard,Metrocard - Unlimited 30-Day,11.0,0.0,40.722855,-74.00628,"{'type': 'Point', 'coordinates': [-74.00628, 40.722855]}"
2024-01-01T01:00:00.000,subway,421,"Gun Hill Rd (2,5)",Bronx,metrocard,Metrocard - Unlimited 30-Day,4.0,0.0,40.87785,-73.86626,"{'type': 'Point', 'coordinates': [-73.86626, 40.87785]}"
2024-01-01T01:00:00.000,subway,419,"225 St (2,5)",Bronx,metrocard,Metrocard - Full Fare,2.0,0.0,40.888023,-73.860344,"{'type': 'Point', 'coordinates': [-73.860344, 40.888023]}"
2024-01-01T01:00:00.000,subway,398,77 St (6),Manhattan,metrocard,Metrocard - Fair Fare,2.0,0.0,40.77362,-73.95988,"{'type': 'Point', 'coordinates': [-73.95988, 40.77362]}"
2024-01-01T01:00:00.000,subway,154,"116 St (C,B)",Manhattan,metrocard,Metrocard - Seniors & Disability,3.0,0.0,40.805084,-73.95488,"{'type': 'Point', 'coordinates': [-73.95488, 40.805084]}"
2024-01-01T01:00:00.000,subway,134,Sutter Av (L),Brooklyn,metrocard,Metrocard - Fair Fare,1.0,0.0,40.66937,-73.90198,"{'type': 'Point', 'coordinates': [-73.90198, 40.66937]}"
2024-01-01T01:00:00.000,subway,626,"Franklin Av (2,3,4,5)/Botanic Garden (S)",Brooklyn,omny,OMNY - Full Fare,126.0,0.0,40.67068,-73.95813,"{'type': 'Point', 'coordinates': [-73.95813, 40.67068]}"
2024-01-01T01:00:00.000,subway,403,33 St (6),Manhattan,omny,OMNY - Full Fare,233.0,2.0,40.746082,-73.98208,"{'type': 'Point', 'coordinates': [-73.98208, 40.746082]}"
2024-01-01T01:00:00.000,subway,386,Mt Eden Av (4),Bronx,omny,OMNY - Full Fare,6.0,0.0,40.844433,-73.91469,"{'type': 'Point', 'coordinates': [-73.91469, 40.844433]}"
2024-01-01T01:00:00.000,subway,165,"23 St (C,E)",Manhattan,omny,OMNY - Full Fare,317.0,3.0,40.745907,-73.99804,"{'type': 'Point', 'coordinates': [-73.99804, 40.745907]}"
2024-01-01T01:00:00.000,subway,608,"4 Av (F,G)/9 St (R)",Brooklyn,metrocard,Metrocard - Fair Fare,6.0,0.0,40.67085,-73.988304,"{'type': 'Point', 'coordinates': [-73.988304, 40.67085]}"
2024-01-01T01:00:00.000,subway,125,Morgan Av (L),Brooklyn,omny,OMNY - Full Fare,186.0,0.0,40.706154,-73.93314,"{'type': 'Point', 'coordinates': [-73.93314, 40.706154]}"
2024-01-01T01:00:00.000,subway,69,25 Av (D),Brooklyn,omny,OMNY - Seniors & Disability,1.0,0.0,40.597706,-73.98683,"{'type': 'Point', 'coordinates': [-73.98683, 40.597706]}"
2024-01-01T01:00:00.000,subway,453,82 St-Jackson Hts (7),Queens,metrocard,Metrocard - Unlimited 30-Day,2.0,0.0,40.747658,-73.8837,"{'type': 'Point', 'coordinates': [-73.8837, 40.747658]}"
2024-01-01T01:00:00.000,subway,295,231 St (1),Bronx,metrocard,Metrocard - Unlimited 7-Day,1.0,0.0,40.878857,-73.90483,"{'type': 'Point', 'coordinates': [-73.90483, 40.878857]}"
2024-01-01T01:00:00.000,subway,188,"Euclid Av (A,C)",Brooklyn,metrocard,Metrocard - Other,5.0,0.0,40.675377,-73.87211,"{'type': 'Point', 'coordinates': [-73.87211, 40.675377]}"
2024-01-01T01:00:00.000,subway,328,WTC Cortlandt (1),Manhattan,metrocard,Metrocard - Other,1.0,0.0,40.711834,-74.01219,"{'type': 'Point', 'coordinates': [-74.01219, 40.711834]}"
2024-01-01T01:00:00.000,subway,41,"7 Av (B,Q)",Brooklyn,metrocard,Metrocard - Fair Fare,1.0,0.0,40.67705,-73.97237,"{'type': 'Point', 'coordinates': [-73.97237, 40.67705]}"
2024-01-01T01:00:00.000,subway,273,"Queens Plaza (E,M,R)",Queens,metrocard,Metrocard - Fair Fare,2.0,0.0,40.748974,-73.93724,"{'type': 'Point', 'coordinates': [-73.93724, 40.748974]}"
2024-01-01T01:00:00.000,subway,6,"39 Av-Dutch Kills (N,W)",Queens,omny,OMNY - Full Fare,19.0,0.0,40.75288,-73.932755,"{'type': 'Point', 'coordinates': [-73.932755, 40.75288]}"
2024-01-01T01:00:00.000,subway,323,Christopher St-Sheridan Sq (1),Manhattan,metrocard,Metrocard - Fair Fare,4.0,0.0,40.73342,-74.00291,"{'type': 'Point', 'coordinates': [-74.00291, 40.73342]}"
2024-01-01T01:00:00.000,subway,337,"Nevins St (2,3,4,5)",Brooklyn,metrocard,Metrocard - Fair Fare,2.0,0.0,40.688248,-73.98049,"{'type': 'Point', 'coordinates': [-73.98049, 40.688248]}"
2024-01-01T01:00:00.000,subway,405,23 St (6),Manhattan,metrocard,Metrocard - Unlimited 7-Day,44.0,0.0,40.739864,-73.9866,"{'type': 'Point', 'coordinates': [-73.9866, 40.739864]}"
2024-01-01T01:00:00.000,subway,347,Saratoga Av (3),Brooklyn,metrocard,Metrocard - Full Fare,2.0,0.0,40.661453,-73.91633,"{'type': 'Point', 'coordinates': [-73.91633, 40.661453]}"
2024-01-01T01:00:00.000,subway,53,Neck Rd (Q),Brooklyn,metrocard,Metrocard - Unlimited 30-Day,1.0,0.0,40.595245,-73.95516,"{'type': 'Point', 'coordinates': [-73.95516, 40.595245]}"
2024-01-01T01:00:00.000,subway,626,"Franklin Av (2,3,4,5)/Botanic Garden (S)",Brooklyn,metrocard,Metrocard - Fair Fare,3.0,0.0,40.67068,-73.95813,"{'type': 'Point', 'coordinates': [-73.95813, 40.67068]}"
2024-01-01T01:00:00.000,subway,20,"City Hall (R,W)",Manhattan,omny,OMNY - Full Fare,12.0,0.0,40.713284,-74.00698,"{'type': 'Point', 'coordinates': [-74.00698, 40.713284]}"
2024-01-01T01:00:00.000,subway,627,"Franklin Av (C,S)",Brooklyn,omny,OMNY - Full Fare,129.0,0.0,40.68138,-73.95685,"{'type': 'Point', 'coordinates': [-73.95685, 40.68138]}"
2024-01-01T01:00:00.000,subway,630,"Myrtle-Wyckoff Avs (L,M)",Brooklyn,omny,OMNY - Full Fare,178.0,2.0,40.699814,-73.91158,"{'type': 'Point', 'coordinates': [-73.91158, 40.699814]}"
2024-01-01T01:00:00.000,subway,461,"Queensboro Plaza (7,N,W)",Queens,omny,OMNY - Full Fare,154.0,21.0,40.750584,-73.9402,"{'type': 'Point', 'coordinates': [-73.9402, 40.750584]}"
2024-01-01T01:00:00.000,subway,320,23 St (1),Manhattan,omny,OMNY - Full Fare,205.0,1.0,40.74408,-73.99566,"{'type': 'Point', 'coordinates': [-73.99566, 40.74408]}"
2024-01-01T01:00:00.000,subway,33,45 St (R),Brooklyn,metrocard,Metrocard - Full Fare,9.0,0.0,40.648937,-74.01001,"{'type': 'Point', 'coordinates': [-74.01001, 40.648937]}"
2024-01-01T01:00:00.000,subway,36,Bay Ridge Av (R),Brooklyn,metrocard,Metrocard - Unlimited 7-Day,5.0,0.0,40.634968,-74.02338,"{'type': 'Point', 'coordinates': [-74.02338, 40.634968]}"
2024-01-01T01:00:00.000,subway,393,116 St (6),Manhattan,metrocard,Metrocard - Seniors & Disability,3.0,0.0,40.79863,-73.94162,"{'type': 'Point', 'coordinates': [-73.94162, 40.79863]}"
2024-01-01T01:00:00.000,subway,287,Flushing Av (G),Brooklyn,metrocard,Metrocard - Full Fare,3.0,0.0,40.70038,-73.95023,"{'type': 'Point', 'coordinates': [-73.95023, 40.70038]}"
2024-01-01T01:00:00.000,subway,276,"5 Av/53 St (E,M)",Manhattan,metrocard,Metrocard - Unlimited 30-Day,23.0,0.0,40.760166,-73.97523,"{'type': 'Point', 'coordinates': [-73.97523, 40.760166]}"
2024-01-01T01:00:00.000,subway,622,"Brooklyn Bridge-City Hall (4,5,6)/Chambers St (J,Z)",Manhattan,metrocard,Metrocard - Fair Fare,11.0,0.0,40.71324,-74.0034,"{'type': 'Point', 'coordinates': [-74.0034, 40.71324]}"
2024-01-01T01:00:00.000,subway,144,Dyckman St (A),Manhattan,metrocard,Metrocard - Full Fare,4.0,0.0,40.86549,-73.92727,"{'type': 'Point', 'coordinates': [-73.92727, 40.86549]}"
2024-01-01T01:00:00.000,subway,136,New Lots Av (L),Brooklyn,metrocard,Metrocard - Fair Fare,1.0,0.0,40.658733,-73.89923,"{'type': 'Point', 'coordinates': [-73.89923, 40.658733]}"
2024-01-01T01:00:00.000,subway,103,"Bowery (J,Z)",Manhattan,omny,OMNY - Full Fare,151.0,0.0,40.72028,-73.99391,"{'type': 'Point', 'coordinates': [-73.99391, 40.72028]}"
2024-01-01T01:00:00.000,subway,303,157 St (1),Manhattan,metrocard,Metrocard - Fair Fare,5.0,0.0,40.83404,-73.94489,"{'type': 'Point', 'coordinates': [-73.94489, 40.83404]}"
2024-01-01T01:00:00.000,subway,626,"Franklin Av (2,3,4,5)/Botanic Garden (S)",Brooklyn,metrocard,Metrocard - Seniors & Disability,2.0,0.0,40.67068,-73.95813,"{'type': 'Point', 'coordinates': [-73.95813, 40.67068]}"
2024-01-01T01:00:00.000,subway,278,"Jamaica Center-Parsons/Archer (E,J,Z)",Queens,metrocard,Metrocard - Full Fare,11.0,4.0,40.70215,-73.80111,"{'type': 'Point', 'coordinates': [-73.80111, 40.70215]}"
2024-01-01T01:00:00.000,subway,77,Kings Hwy (N),Brooklyn,omny,OMNY - Full Fare,3.0,0.0,40.603924,-73.980354,"{'type': 'Point', 'coordinates': [-73.980354, 40.603924]}"
2024-01-01T01:00:00.000,subway,78,Avenue U (N),Brooklyn,metrocard,Metrocard - Full Fare,5.0,0.0,40.597473,-73.97913,"{'type': 'Point', 'coordinates': [-73.97913, 40.597473]}"
2024-01-01T01:00:00.000,subway,185,Liberty Av (C),Brooklyn,metrocard,Metrocard - Full Fare,3.0,0.0,40.67454,-73.896545,"{'type': 'Point', 'coordinates': [-73.896545, 40.67454]}"
2024-01-01T01:00:00.000,subway,362,Middletown Rd (6),Bronx,metrocard,Metrocard - Full Fare,2.0,0.0,40.843864,-73.83632,"{'type': 'Point', 'coordinates': [-73.83632, 40.843864]}"
2024-01-01T01:00:00.000,subway,431,"Intervale Av (2,5)",Bronx,metrocard,Metrocard - Seniors & Disability,1.0,0.0,40.82218,-73.896736,"{'type': 'Point', 'coordinates': [-73.896736, 40.82218]}"
2024-01-01T01:00:00.000,subway,109,Fresh Pond Rd (M),Queens,omny,OMNY - Full Fare,16.0,0.0,40.706184,-73.895874,"{'type': 'Point', 'coordinates': [-73.895874, 40.706184]}"
2024-01-01T01:00:00.000,subway,220,"155 St (B,D)",Manhattan,metrocard,Metrocard - Full Fare,4.0,0.0,40.830135,-73.93821,"{'type': 'Point', 'coordinates': [-73.93821, 40.830135]}"
2024-01-01T01:00:00.000,subway,624,"Chambers St (A,C)/WTC (E)/Park Pl (2,3)/Cortlandt (R,W)",Manhattan,metrocard,Metrocard - Unlimited 7-Day,74.0,0.0,40.71411,-74.00858,"{'type': 'Point', 'coordinates': [-74.00858, 40.71411]}"
2024-01-01T01:00:00.000,tram,TRAM2,RI Tramway (Roosevelt),Manhattan,metrocard,Metrocard - Other,1.0,0.0,40.75734,-73.95412,"{'type': 'Point', 'coordinates': [-73.95412, 40.75734]}"
2024-01-01T01:00:00.000,subway,13,"28 St (R,W)",Manhattan,metrocard,Metrocard - Unlimited 7-Day,31.0,0.0,40.745495,-73.98869,"{'type': 'Point', 'coordinates': [-73.98869, 40.745495]}"
2024-01-01T01:00:00.000,subway,365,Castle Hill Av (6),Bronx,metrocard,Metrocard - Seniors & Disability,2.0,0.0,40.834255,-73.85122,"{'type': 'Point', 'coordinates': [-73.85122, 40.834255]}"
2024-01-01T01:00:00.000,subway,314,66 St-Lincoln Center (1),Manhattan,omny,OMNY - Full Fare,130.0,0.0,40.77344,-73.98221,"{'type': 'Point', 'coordinates': [-73.98221, 40.77344]}"
2024-01-01T01:00:00.000,subway,143,Inwood-207 St (A),Manhattan,omny,OMNY - Seniors & Disability,1.0,0.0,40.868073,-73.9199,"{'type': 'Point', 'coordinates': [-73.9199, 40.868073]}"
2024-01-01T01:00:00.000,subway,616,"74-Broadway (7)/Jackson Hts-Roosevelt Av (E,F,M,R)",Queens,metrocard,Metrocard - Unlimited 30-Day,43.0,0.0,40.74685,-73.891335,"{'type': 'Point', 'coordinates': [-73.891335, 40.74685]}"
2024-01-01T01:00:00.000,subway,85,"75 St-Elderts Ln (J,Z)",Queens,omny,OMNY - Full Fare,1.0,0.0,40.691322,-73.86714,"{'type': 'Point', 'coordinates': [-73.86714, 40.691322]}"
2024-01-01T01:00:00.000,subway,292,Fulton St (G),Brooklyn,metrocard,Metrocard - Other,6.0,0.0,40.68712,-73.97537,"{'type': 'Point', 'coordinates': [-73.97537, 40.68712]}"
2024-01-01T01:00:00.000,subway,413,"Wall St (4,5)",Manhattan,omny,OMNY - Full Fare,159.0,0.0,40.707558,-74.01186,"{'type': 'Point', 'coordinates': [-74.01186, 40.707558]}"
2024-01-01T01:00:00.000,subway,153,"125 St (A,C,B,D)",Manhattan,metrocard,Metrocard - Unlimited 30-Day,9.0,0.0,40.811108,-73.95235,"{'type': 'Point', 'coordinates': [-73.95235, 40.811108]}"
2024-01-01T01:00:00.000,subway,370,Whitlock Av (6),Bronx,metrocard,Metrocard - Unlimited 7-Day,3.0,0.0,40.826527,-73.886284,"{'type': 'Point', 'coordinates': [-73.886284, 40.826527]}"
2024-01-01T01:00:00.000,subway,162,"50 St (C,E)",Manhattan,omny,OMNY - Full Fare,1012.0,0.0,40.762455,-73.985985,"{'type': 'Point', 'coordinates': [-73.985985, 40.762455]}"
2024-01-01T01:00:00.000,subway,398,77 St (6),Manhattan,omny,OMNY - Seniors & Disability,2.0,0.0,40.77362,-73.95988,"{'type': 'Point', 'coordinates': [-73.95988, 40.77362]}"
2024-01-01T01:00:00.000,subway,257,Sutphin Blvd (F),Queens,omny,OMNY - Full Fare,5.0,0.0,40.70546,-73.81071,"{'type': 'Point', 'coordinates': [-73.81071, 40.70546]}"
2024-01-01T01:00:00.000,subway,93,"Chauncey St (J,Z)",Brooklyn,metrocard,Metrocard - Fair Fare,1.0,0.0,40.68289,-73.91045,"{'type': 'Point', 'coordinates': [-73.91045, 40.68289]}"
2024-01-01T01:00:00.000,subway,607,"34 St-Herald Sq (B,D,F,M,N,Q,R,W)",Manhattan,metrocard,Metrocard - Full Fare,375.0,0.0,40.749718,-73.98782,"{'type': 'Point', 'coordinates': [-73.98782, 40.749718]}"
2024-01-01T01:00:00.000,subway,212,"Kingsbridge Rd (B,D)",Bronx,omny,OMNY - Full Fare,3.0,0.0,40.866978,-73.89351,"{'type': 'Point', 'coordinates': [-73.89351, 40.866978]}"
2024-01-01T01:00:00.000,subway,151,"145 St (A,C,B,D)",Manhattan,metrocard,Metrocard - Other,3.0,0.0,40.824783,-73.944214,"{'type': 'Point', 'coordinates': [-73.944214, 40.824783]}"
2024-01-01T01:00:00.000,subway,143,Inwood-207 St (A),Manhattan,metrocard,Metrocard - Other,4.0,0.0,40.868073,-73.9199,"{'type': 'Point', 'coordinates': [-73.9199, 40.868073]}"
2024-01-01T01:00:00.000,subway,628,"Fulton St (A,C,J,Z,2,3,4,5)",Manhattan,metrocard,Metrocard - Seniors & Disability,1.0,0.0,40.710373,-74.00758,"{'type': 'Point', 'coordinates': [-74.00758, 40.710373]}"
2024-01-01T01:00:00.000,subway,326,Franklin St (1),Manhattan,metrocard,Metrocard - Other,3.0,0.0,40.71932,-74.00689,"{'type': 'Point', 'coordinates': [-74.00689, 40.71932]}"
2024-01-01T01:00:00.000,subway,305,137 St-City College (1),Manhattan,metrocard,Metrocard - Full Fare,12.0,0.0,40.822006,-73.953674,"{'type': 'Point', 'coordinates': [-73.953674, 40.822006]}"
2024-01-01T01:00:00.000,subway,340,"Grand Army Plaza (2,3)",Brooklyn,metrocard,Metrocard - Full Fare,29.0,0.0,40.675236,-73.97105,"{'type': 'Point', 'coordinates': [-73.97105, 40.675236]}"
2024-01-01T01:00:00.000,subway,82,"104 St (J,Z)",Queens,metrocard,Metrocard - Other,1.0,0.0,40.69518,-73.84433,"{'type': 'Point', 'coordinates': [-73.84433, 40.69518]}"
2024-01-01T01:00:00.000,subway,356,"Church Av (2,5)",Brooklyn,metrocard,Metrocard - Full Fare,5.0,0.0,40.650845,-73.94958,"{'type': 'Point', 'coordinates': [-73.94958, 40.650845]}"
2024-01-01T01:00:00.000,subway,136,New Lots Av (L),Brooklyn,metrocard,Metrocard - Other,1.0,0.0,40.658733,-73.89923,"{'type': 'Point', 'coordinates': [-73.89923, 40.658733]}"
2024-01-01T01:00:00.000,subway,375,Cypress Av (6),Bronx,omny,OMNY - Full Fare,4.0,0.0,40.805367,-73.91404,"{'type': 'Point', 'coordinates': [-73.91404, 40.805367]}"
2024-01-01T01:00:00.000,subway,58,"Coney Island-Stillwell Av (D,F,N,Q)",Brooklyn,metrocard,Metrocard - Other,22.0,0.0,40.577423,-73.98123,"{'type': 'Point', 'coordinates': [-73.98123, 40.577423]}"
2024-01-01T01:00:00.000,subway,380,Bedford Park Blvd-Lehman College (4),Bronx,metrocard,Metrocard - Full Fare,4.0,1.0,40.873413,-73.89006,"{'type': 'Point', 'coordinates': [-73.89006, 40.873413]}"
2024-01-01T01:00:00.000,subway,67,20 Av (D),Brooklyn,metrocard,Metrocard - Full Fare,4.0,0.0,40.604557,-73.99817,"{'type': 'Point', 'coordinates': [-73.99817, 40.604557]}"
2024-01-01T01:00:00.000,subway,614,"59 St-Columbus Circle (A,B,C,D,1)",Manhattan,omny,OMNY - Seniors & Disability,4.0,1.0,40.768295,-73.981735,"{'type': 'Point', 'coordinates': [-73.981735, 40.768295]}"
2024-01-01T01:00:00.000,subway,215,"Tremont Av (B,D)",Bronx,metrocard,Metrocard - Unlimited 7-Day,1.0,0.0,40.85041,-73.90523,"{'type': 'Point', 'coordinates': [-73.90523, 40.85041]}"
2024-01-01T01:00:00.000,subway,278,"Jamaica Center-Parsons/Archer (E,J,Z)",Queens,metrocard,Metrocard - Unlimited 7-Day,11.0,0.0,40.70215,-73.80111,"{'type': 'Point', 'coordinates': [-73.80111, 40.70215]}"
2024-01-01T01:00:00.000,subway,373,E 149 St (6),Bronx,metrocard,Metrocard - Unlimited 7-Day,3.0,0.0,40.81212,-73.9041,"{'type': 'Point', 'coordinates': [-73.9041, 40.81212]}"
2024-01-01T01:00:00.000,subway,251,Avenue U (F),Brooklyn,metrocard,Metrocard - Unlimited 7-Day,1.0,0.0,40.59606,-73.97336,"{'type': 'Point', 'coordinates': [-73.97336, 40.59606]}"
2024-01-01T01:00:00.000,subway,278,"Jamaica Center-Parsons/Archer (E,J,Z)",Queens,metrocard,Metrocard - Seniors & Disability,2.0,1.0,40.70215,-73.80111,"{'type': 'Point', 'coordinates': [-73.80111, 40.70215]}"
2024-01-01T01:00:00.000,subway,610,"Grand Central-42 St (S,4,5,6,7)",Manhattan,omny,OMNY - Other,2.0,0.0,40.751778,-73.976845,"{'type': 'Point', 'coordinates': [-73.976845, 40.751778]}"
2024-01-01T01:00:00.000,subway,345,"Crown Hts-Utica Av (3,4)",Brooklyn,metrocard,Metrocard - Unlimited 30-Day,9.0,0.0,40.668896,-73.932945,"{'type': 'Point', 'coordinates': [-73.932945, 40.668896]}"
2024-01-01T01:00:00.000,subway,475,96 St (Q),Manhattan,metrocard,Metrocard - Unlimited 30-Day,5.0,0.0,40.784317,-73.94715,"{'type': 'Point', 'coordinates': [-73.94715, 40.784317]}"
2024-01-01T01:00:00.000,subway,371,Hunts Point Av (6),Bronx,metrocard,Metrocard - Seniors & Disability,1.0,0.0,40.82095,-73.89055,"{'type': 'Point', 'coordinates': [-73.89055, 40.82095]}"
2024-01-01T01:00:00.000,subway,426,"E 180 St (2,5)",Bronx,metrocard,Metrocard - Full Fare,8.0,0.0,40.841892,-73.87349,"{'type': 'Point', 'coordinates': [-73.87349, 40.841892]}"
2024-01-01T01:00:00.000,subway,352,New Lots Av (3),Brooklyn,omny,OMNY - Full Fare,2.0,0.0,40.666237,-73.88408,"{'type': 'Point', 'coordinates': [-73.88408, 40.666237]}"
2024-01-01T01:00:00.000,subway,123,Grand St (L),Brooklyn,omny,OMNY - Full Fare,158.0,1.0,40.711926,-73.94067,"{'type': 'Point', 'coordinates': [-73.94067, 40.711926]}"
2024-01-01T01:00:00.000,subway,459,40 St-Lowery St (7),Queens,metrocard,Metrocard - Seniors & Disability,1.0,0.0,40.743782,-73.92402,"{'type': 'Point', 'coordinates': [-73.92402, 40.743782]}"
2024-01-01T01:00:00.000,subway,608,"4 Av (F,G)/9 St (R)",Brooklyn,metrocard,Metrocard - Other,9.0,0.0,40.67085,-73.988304,"{'type': 'Point', 'coordinates': [-73.988304, 40.67085]}"
2024-01-01T01:00:00.000,subway,151,"145 St (A,C,B,D)",Manhattan,metrocard,Metrocard - Unlimited 30-Day,7.0,0.0,40.824783,-73.944214,"{'type': 'Point', 'coordinates': [-73.944214, 40.824783]}"
2024-01-01T01:00:00.000,subway,268,"65 St (M,R)",Queens,omny,OMNY - Full Fare,4.0,0.0,40.74967,-73.89845,"{'type': 'Point', 'coordinates': [-73.89845, 40.74967]}"
2024-01-01T01:00:00.000,subway,223,"Lexington Av/63 St (F,Q)",Manhattan,metrocard,Metrocard - Unlimited 30-Day,8.0,0.0,40.76463,-73.96611,"{'type': 'Point', 'coordinates': [-73.96611, 40.76463]}"
2024-01-01T01:00:00.000,subway,356,"Church Av (2,5)",Brooklyn,metrocard,Metrocard - Unlimited 30-Day,3.0,0.0,40.650845,-73.94958,"{'type': 'Point', 'coordinates': [-73.94958, 40.650845]}"
2024-01-01T01:00:00.000,subway,348,Rockaway Av (3),Brooklyn,omny,OMNY - Full Fare,3.0,0.0,40.662548,-73.90894,"{'type': 'Point', 'coordinates': [-73.90894, 40.662548]}"
2024-01-01T01:00:00.000,subway,154,"116 St (C,B)",Manhattan,metrocard,Metrocard - Unlimited 30-Day,2.0,0.0,40.805084,-73.95488,"{'type': 'Point', 'coordinates': [-73.95488, 40.805084]}"
2024-01-01T01:00:00.000,subway,606,"Court Sq (E,G,M,7)",Queens,metrocard,Metrocard - Fair Fare,5.0,0.0,40.747845,-73.94383,"{'type': 'Point', 'coordinates': [-73.94383, 40.747845]}"
2024-01-01T01:00:00.000,subway,455,69 St (7),Queens,metrocard,Metrocard - Unlimited 30-Day,3.0,0.0,40.746326,-73.8964,"{'type': 'Point', 'coordinates': [-73.8964, 40.746326]}"
2024-01-01T01:00:00.000,subway,629,Lorimer St (L)/Metropolitan Av (G),Brooklyn,metrocard,Metrocard - Other,16.0,0.0,40.71406,-73.95027,"{'type': 'Point', 'coordinates': [-73.95027, 40.71406]}"
2024-01-01T01:00:00.000,subway,46,Cortelyou Rd (Q),Brooklyn,omny,OMNY - Full Fare,33.0,0.0,40.640926,-73.96389,"{'type': 'Point', 'coordinates': [-73.96389, 40.640926]}"
2024-01-01T01:00:00.000,subway,290,Classon Av (G),Brooklyn,omny,OMNY - Full Fare,121.0,2.0,40.688873,-73.96007,"{'type': 'Point', 'coordinates': [-73.96007, 40.688873]}"
2024-01-01T01:00:00.000,subway,22,"Rector St (R,W)",Manhattan,metrocard,Metrocard - Other,1.0,0.0,40.70722,-74.01334,"{'type': 'Point', 'coordinates': [-74.01334, 40.70722]}"
2024-01-01T01:00:00.000,subway,449,111 St (7),Queens,metrocard,Metrocard - Full Fare,10.0,2.0,40.75173,-73.85533,"{'type': 'Point', 'coordinates': [-73.85533, 40.75173]}"
2024-01-01T01:00:00.000,subway,279,"Sutphin Blvd-Archer Av-JFK Airport (E,J,Z)",Queens,metrocard,Metrocard - Fair Fare,4.0,0.0,40.700485,-73.80797,"{'type': 'Point', 'coordinates': [-73.80797, 40.700485]}"
2024-01-01T01:00:00.000,subway,5,"36 Av (N,W)",Queens,metrocard,Metrocard - Full Fare,2.0,0.0,40.756805,-73.92957,"{'type': 'Point', 'coordinates': [-73.92957, 40.756805]}"
2024-01-01T01:00:00.000,subway,452,90 St-Elmhurst Av (7),Queens,omny,OMNY - Full Fare,33.0,0.0,40.74841,-73.87661,"{'type': 'Point', 'coordinates': [-73.87661, 40.74841]}"
2024-01-01T01:00:00.000,subway,279,"Sutphin Blvd-Archer Av-JFK Airport (E,J,Z)",Queens,metrocard,Metrocard - Unlimited 30-Day,16.0,0.0,40.700485,-73.80797,"{'type': 'Point', 'coordinates': [-73.80797, 40.700485]}"
2024-01-01T01:00:00.000,subway,141,Park Pl (S),Brooklyn,omny,OMNY - Full Fare,22.0,0.0,40.67477,-73.95763,"{'type': 'Point', 'coordinates': [-73.95763, 40.67477]}"
2024-01-01T01:00:00.000,subway,257,Sutphin Blvd (F),Queens,metrocard,Metrocard - Full Fare,4.0,0.0,40.70546,-73.81071,"{'type': 'Point', 'coordinates': [-73.81071, 40.70546]}"
2024-01-01T01:00:00.000,subway,9,"57 St-7 Av (N,Q,R,W)",Manhattan,metrocard,Metrocard - Fair Fare,9.0,0.0,40.764664,-73.98066,"{'type': 'Point', 'coordinates': [-73.98066, 40.764664]}"
2024-01-01T01:00:00.000,subway,2,"Astoria Blvd (N,W)",Queens,metrocard,Metrocard - Other,6.0,0.0,40.77026,-73.91785,"{'type': 'Point', 'coordinates': [-73.91785, 40.77026]}"
2024-01-01T01:00:00.000,subway,158,"86 St (C,B)",Manhattan,metrocard,Metrocard - Unlimited 7-Day,20.0,0.0,40.78587,-73.96892,"{'type': 'Point', 'coordinates': [-73.96892, 40.78587]}"
2024-01-01T01:00:00.000,subway,118,3 Av (L),Manhattan,omny,OMNY - Full Fare,286.0,3.0,40.73285,-73.98612,"{'type': 'Point', 'coordinates': [-73.98612, 40.73285]}"
2024-01-01T01:00:00.000,subway,386,Mt Eden Av (4),Bronx,metrocard,Metrocard - Unlimited 30-Day,2.0,0.0,40.844433,-73.91469,"{'type': 'Point', 'coordinates': [-73.91469, 40.844433]}"
2024-01-01T01:00:00.000,subway,333,"Wall St (2,3)",Manhattan,metrocard,Metrocard - Unlimited 30-Day,7.0,0.0,40.70682,-74.0091,"{'type': 'Point', 'coordinates': [-74.0091, 40.70682]}"
2024-01-01T01:00:00.000,subway,270,"46 St (M,R)",Queens,metrocard,Metrocard - Unlimited 7-Day,3.0,0.0,40.756313,-73.91333,"{'type': 'Point', 'coordinates': [-73.91333, 40.756313]}"
2024-01-01T01:00:00.000,subway,26,"DeKalb Av (B,Q,R)",Brooklyn,metrocard,Metrocard - Seniors & Disability,3.0,0.0,40.690636,-73.98183,"{'type': 'Point', 'coordinates': [-73.98183, 40.690636]}"
2024-01-01T01:00:00.000,subway,82,"104 St (J,Z)",Queens,omny,OMNY - Full Fare,9.0,0.0,40.69518,-73.84433,"{'type': 'Point', 'coordinates': [-73.84433, 40.69518]}"
2024-01-01T01:00:00.000,subway,225,"47-50 Sts-Rockefeller Ctr (B,D,F,M)",Manhattan,metrocard,Metrocard - Fair Fare,15.0,0.0,40.758663,-73.98133,"{'type': 'Point', 'coordinates': [-73.98133, 40.758663]}"
2024-01-01T01:00:00.000,subway,154,"116 St (C,B)",Manhattan,omny,OMNY - Full Fare,54.0,1.0,40.805084,-73.95488,"{'type': 'Point', 'coordinates': [-73.95488, 40.805084]}"
2024-01-01T01:00:00.000,subway,311,86 St (1),Manhattan,omny,OMNY - Full Fare,176.0,0.0,40.788643,-73.97622,"{'type': 'Point', 'coordinates': [-73.97622, 40.788643]}"
2024-01-01T01:00:00.000,subway,301,181 St (1),Manhattan,omny,OMNY - Full Fare,48.0,2.0,40.849506,-73.93359,"{'type': 'Point', 'coordinates': [-73.93359, 40.849506]}"
2024-01-01T01:00:00.000,subway,133,Atlantic Av (L),Brooklyn,metrocard,Metrocard - Unlimited 7-Day,1.0,0.0,40.675346,-73.9031,"{'type': 'Point', 'coordinates': [-73.9031, 40.675346]}"
2024-01-01T01:00:00.000,subway,396,96 St (6),Manhattan,metrocard,Metrocard - Fair Fare,1.0,0.0,40.78567,-73.95107,"{'type': 'Point', 'coordinates': [-73.95107, 40.78567]}"
2024-01-01T01:00:00.000,subway,146,181 St (A),Manhattan,metrocard,Metrocard - Other,1.0,0.0,40.851696,-73.937965,"{'type': 'Point', 'coordinates': [-73.937965, 40.851696]}"
2024-01-01T01:00:00.000,subway,394,110 St (6),Manhattan,metrocard,Metrocard - Fair Fare,1.0,0.0,40.79502,-73.94425,"{'type': 'Point', 'coordinates': [-73.94425, 40.79502]}"
2024-01-01T01:00:00.000,subway,396,96 St (6),Manhattan,metrocard,Metrocard - Other,5.0,0.0,40.78567,-73.95107,"{'type': 'Point', 'coordinates': [-73.95107, 40.78567]}"
2024-01-01T01:00:00.000,subway,635,"South Ferry (1)/Whitehall St (R,W)",Manhattan,metrocard,Metrocard - Unlimited 7-Day,41.0,0.0,40.703087,-74.01299,"{'type': 'Point', 'coordinates': [-74.01299, 40.703087]}"
2024-01-01T01:00:00.000,subway,198,Howard Beach-JFK Airport (A),Queens,metrocard,Metrocard - Seniors & Disability,1.0,0.0,40.660477,-73.8303,"{'type': 'Point', 'coordinates': [-73.8303, 40.660477]}"
2024-01-01T01:00:00.000,subway,278,"Jamaica Center-Parsons/Archer (E,J,Z)",Queens,metrocard,Metrocard - Unlimited 30-Day,5.0,0.0,40.70215,-73.80111,"{'type': 'Point', 'coordinates': [-73.80111, 40.70215]}"
2024-01-01T01:00:00.000,subway,99,"Lorimer St (M,J)",Brooklyn,omny,OMNY - Full Fare,25.0,0.0,40.70387,-73.94741,"{'type': 'Point', 'coordinates': [-73.94741, 40.70387]}"
2024-01-01T01:00:00.000,subway,270,"46 St (M,R)",Queens,omny,OMNY - Full Fare,13.0,0.0,40.756313,-73.91333,"{'type': 'Point', 'coordinates': [-73.91333, 40.756313]}"
2024-01-01T01:00:00.000,subway,53,Neck Rd (Q),Brooklyn,metrocard,Metrocard - Full Fare,1.0,0.0,40.595245,-73.95516,"{'type': 'Point', 'coordinates': [-73.95516, 40.595245]}"
2024-01-01T01:00:00.000,subway,135,Livonia Av (L),Brooklyn,metrocard,Metrocard - Unlimited 30-Day,3.0,0.0,40.66404,-73.90057,"{'type': 'Point', 'coordinates': [-73.90057, 40.66404]}"
2024-01-01T01:00:00.000,subway,122,Graham Av (L),Brooklyn,metrocard,Metrocard - Full Fare,11.0,1.0,40.714565,-73.94405,"{'type': 'Point', 'coordinates': [-73.94405, 40.714565]}"
2024-01-01T01:00:00.000,subway,333,"Wall St (2,3)",Manhattan,metrocard,Metrocard - Full Fare,17.0,0.0,40.70682,-74.0091,"{'type': 'Point', 'coordinates': [-74.0091, 40.70682]}"
2024-01-01T01:00:00.000,subway,305,137 St-City College (1),Manhattan,metrocard,Metrocard - Fair Fare,1.0,0.0,40.822006,-73.953674,"{'type': 'Point', 'coordinates': [-73.953674, 40.822006]}"
2024-01-01T01:00:00.000,subway,353,"President St-Medgar Evers College (2,5)",Brooklyn,metrocard,Metrocard - Full Fare,3.0,0.0,40.667885,-73.95068,"{'type': 'Point', 'coordinates': [-73.95068, 40.667885]}"
2024-01-01T01:00:00.000,subway,258,"Briarwood (E,F)",Queens,metrocard,Metrocard - Unlimited 30-Day,1.0,0.0,40.70918,-73.82057,"{'type': 'Point', 'coordinates': [-73.82057, 40.70918]}"
2024-01-01T01:00:00.000,subway,126,Jefferson St (L),Brooklyn,omny,OMNY - Full Fare,493.0,0.0,40.706608,-73.92291,"{'type': 'Point', 'coordinates': [-73.92291, 40.706608]}"
2024-01-01T01:00:00.000,subway,167,"W 4 St-Wash Sq (A,C,E,B,D,F,M)",Manhattan,metrocard,Metrocard - Unlimited 7-Day,125.0,0.0,40.732338,-74.000496,"{'type': 'Point', 'coordinates': [-74.000496, 40.732338]}"
2024-01-01T01:00:00.000,subway,416,Wakefield-241 St (2),Bronx,metrocard,Metrocard - Other,5.0,0.0,40.903126,-73.85062,"{'type': 'Point', 'coordinates': [-73.85062, 40.903126]}"
2024-01-01T01:00:00.000,tram,TRAM1,RI Tramway (Manhattan),Manhattan,metrocard,Metrocard - Seniors & Disability,6.0,2.0,40.761337,-73.96416,"{'type': 'Point', 'coordinates': [-73.96416, 40.761337]}"
2024-01-01T01:00:00.000,subway,95,"Gates Av (J,Z)",Brooklyn,metrocard,Metrocard - Unlimited 30-Day,4.0,0.0,40.68963,-73.92227,"{'type': 'Point', 'coordinates': [-73.92227, 40.68963]}"
2024-01-01T01:00:00.000,subway,3,"30 Av (N,W)",Queens,metrocard,Metrocard - Seniors & Disability,1.0,0.0,40.76678,-73.92148,"{'type': 'Point', 'coordinates': [-73.92148, 40.76678]}"
2024-01-01T01:00:00.000,subway,427,"West Farms Sq-E Tremont Av (2,5)",Bronx,metrocard,Metrocard - Full Fare,3.0,0.0,40.840294,-73.88005,"{'type': 'Point', 'coordinates': [-73.88005, 40.840294]}"
2024-01-01T01:00:00.000,subway,304,145 St (1),Manhattan,metrocard,Metrocard - Seniors & Disability,4.0,0.0,40.82655,-73.95036,"{'type': 'Point', 'coordinates': [-73.95036, 40.82655]}"
2024-01-01T01:00:00.000,subway,264,"Woodhaven Blvd (M,R)",Queens,metrocard,Metrocard - Fair Fare,4.0,0.0,40.733105,-73.86923,"{'type': 'Point', 'coordinates': [-73.86923, 40.733105]}"
